[
  {
    "name": ".",
    "lat": -36.70449,
    "lon": 144.45724,
    "type": "campground",
    "state": "NSW",
    "slug": "site--3670449-14445724",
    "phone": "",
    "website": "",
    "fee": "",
    "access": "",
    "capacity": "",
    "drinking_water": "",
    "toilets": "",
    "shower": "",
    "power_supply": "",
    "bbq": "",
    "pets": "",
    "operator": "",
    "description": "",
    "addr": ""
  },
  {
    "name": "150 Meridian Rest Area",
    "lat": -31.06278,
    "lon": 149.99861,
    "type": "campground",
    "state": "NSW",
    "slug": "150-meridian-rest-area",
    "phone": "",
    "website": "",
    "fee": "no",
    "access": "yes",
    "capacity": "",
    "drinking_water": "",
    "toilets": "yes",
    "shower": "",
    "power_supply": "",
    "bbq": "",
    "pets": "",
    "operator": "",
    "description": "",
    "addr": ""
  },
  {
    "name": "1818 Bend Campsite",
    "lat": -35.827435,
    "lon": 145.139206,
    "type": "campground",
    "state": "NSW",
    "slug": "1818-bend-campsite",
    "phone": "",
    "website": "",
    "fee": "",
    "access": "",
    "capacity": "",
    "drinking_water": "",
    "toilets": "",
    "shower": "",
    "power_supply": "",
    "bbq": "",
    "pets": "",
    "operator": "",
    "description": "",
    "addr": ""
  },
  {
    "name": "1st Blackheath Scouts Camp Ground",
    "lat": -33.674681,
    "lon": 150.268409,
    "type": "campground",
    "state": "NSW",
    "slug": "1st-blackheath-scouts-camp-ground",
    "phone": "",
    "website": "",
    "fee": "",
    "access": "",
    "capacity": "",
    "drinking_water": "",
    "toilets": "",
    "shower": "",
    "power_supply": "",
    "bbq": "",
    "pets": "",
    "operator": "",
    "description": "This camp site, on the northern side of Pulpit Hill Creek and Blackheath Glen Reserve is the official camp ground of 1st Blackheath Scout Group, and has been their camp site for over 70 years.",
    "addr": ""
  },
  {
    "name": "25 Mile: Lower",
    "lat": -37.483895,
    "lon": 146.094638,
    "type": "campground",
    "state": "NSW",
    "slug": "25-mile-lower",
    "phone": "",
    "website": "",
    "fee": "",
    "access": "",
    "capacity": "",
    "drinking_water": "",
    "toilets": "",
    "shower": "",
    "power_supply": "",
    "bbq": "",
    "pets": "",
    "operator": "",
    "description": "",
    "addr": ""
  },
  {
    "name": "25 Mile: Upper",
    "lat": -37.485747,
    "lon": 146.094096,
    "type": "campground",
    "state": "NSW",
    "slug": "25-mile-upper",
    "phone": "",
    "website": "",
    "fee": "",
    "access": "",
    "capacity": "",
    "drinking_water": "",
    "toilets": "",
    "shower": "",
    "power_supply": "",
    "bbq": "",
    "pets": "",
    "operator": "",
    "description": "Small camp site",
    "addr": ""
  },
  {
    "name": "2nd Castlemaine Scout Camp",
    "lat": -37.112412,
    "lon": 144.24977,
    "type": "campground",
    "state": "NSW",
    "slug": "2nd-castlemaine-scout-camp",
    "phone": "",
    "website": "",
    "fee": "",
    "access": "",
    "capacity": "",
    "drinking_water": "",
    "toilets": "",
    "shower": "",
    "power_supply": "",
    "bbq": "",
    "pets": "",
    "operator": "Scouts Victoria",
    "description": "",
    "addr": ""
  },
  {
    "name": "2th Downstream of Wasers Beach",
    "lat": -35.862631,
    "lon": 145.34447,
    "type": "campground",
    "state": "NSW",
    "slug": "2th-downstream-of-wasers-beach",
    "phone": "",
    "website": "",
    "fee": "",
    "access": "",
    "capacity": "",
    "drinking_water": "",
    "toilets": "yes",
    "shower": "",
    "power_supply": "",
    "bbq": "",
    "pets": "",
    "operator": "Parks Victoria",
    "description": "",
    "addr": ""
  },
  {
    "name": "3 Wishes Farm",
    "lat": -28.476343,
    "lon": 153.231414,
    "type": "campground",
    "state": "NSW",
    "slug": "3-wishes-farm",
    "phone": "",
    "website": "",
    "fee": "",
    "access": "",
    "capacity": "",
    "drinking_water": "",
    "toilets": "",
    "shower": "",
    "power_supply": "",
    "bbq": "",
    "pets": "",
    "operator": "",
    "description": "",
    "addr": "Kyogle Road"
  },
  {
    "name": "3th Downstream of Wasers Beach",
    "lat": -35.862892,
    "lon": 145.342072,
    "type": "campground",
    "state": "NSW",
    "slug": "3th-downstream-of-wasers-beach",
    "phone": "",
    "website": "",
    "fee": "",
    "access": "",
    "capacity": "",
    "drinking_water": "",
    "toilets": "yes",
    "shower": "",
    "power_supply": "",
    "bbq": "",
    "pets": "",
    "operator": "Parks Victoria",
    "description": "",
    "addr": ""
  },
  {
    "name": "4th Downstream of Wasers Beach",
    "lat": -35.861213,
    "lon": 145.339036,
    "type": "campground",
    "state": "NSW",
    "slug": "4th-downstream-of-wasers-beach",
    "phone": "",
    "website": "",
    "fee": "",
    "access": "",
    "capacity": "",
    "drinking_water": "",
    "toilets": "yes",
    "shower": "",
    "power_supply": "",
    "bbq": "",
    "pets": "",
    "operator": "Parks Victoria",
    "description": "",
    "addr": ""
  },
  {
    "name": "5th Downstream of Wasers Beach",
    "lat": -35.860535,
    "lon": 145.335957,
    "type": "campground",
    "state": "NSW",
    "slug": "5th-downstream-of-wasers-beach",
    "phone": "",
    "website": "",
    "fee": "",
    "access": "",
    "capacity": "",
    "drinking_water": "",
    "toilets": "yes",
    "shower": "",
    "power_supply": "",
    "bbq": "",
    "pets": "",
    "operator": "Parks Victoria",
    "description": "",
    "addr": ""
  },
  {
    "name": "6 Mile Flat",
    "lat": -37.194798,
    "lon": 146.400672,
    "type": "campground",
    "state": "NSW",
    "slug": "6-mile-flat",
    "phone": "",
    "website": "",
    "fee": "",
    "access": "",
    "capacity": "",
    "drinking_water": "",
    "toilets": "",
    "shower": "",
    "power_supply": "",
    "bbq": "",
    "pets": "",
    "operator": "",
    "description": "",
    "addr": ""
  },
  {
    "name": "6th Downstream of Wasers Beach",
    "lat": -35.854487,
    "lon": 145.329273,
    "type": "campground",
    "state": "NSW",
    "slug": "6th-downstream-of-wasers-beach",
    "phone": "",
    "website": "",
    "fee": "",
    "access": "",
    "capacity": "",
    "drinking_water": "",
    "toilets": "yes",
    "shower": "",
    "power_supply": "",
    "bbq": "",
    "pets": "",
    "operator": "Parks Victoria",
    "description": "",
    "addr": ""
  },
  {
    "name": "7 Knights Caravan Park",
    "lat": -29.062614,
    "lon": 152.016711,
    "type": "caravan_park",
    "state": "NSW",
    "slug": "7-knights-caravan-park",
    "phone": "",
    "website": "",
    "fee": "",
    "access": "",
    "capacity": "",
    "drinking_water": "",
    "toilets": "",
    "shower": "",
    "power_supply": "",
    "bbq": "",
    "pets": "",
    "operator": "",
    "description": "",
    "addr": ""
  },
  {
    "name": "7 Mile Flat",
    "lat": -37.195411,
    "lon": 146.422712,
    "type": "campground",
    "state": "NSW",
    "slug": "7-mile-flat",
    "phone": "",
    "website": "",
    "fee": "",
    "access": "",
    "capacity": "",
    "drinking_water": "",
    "toilets": "",
    "shower": "",
    "power_supply": "",
    "bbq": "",
    "pets": "",
    "operator": "",
    "description": "",
    "addr": ""
  },
  {
    "name": "7 Oaks",
    "lat": -29.684656,
    "lon": 151.282264,
    "type": "campground",
    "state": "NSW",
    "slug": "7-oaks",
    "phone": "",
    "website": "",
    "fee": "",
    "access": "",
    "capacity": "",
    "drinking_water": "",
    "toilets": "",
    "shower": "",
    "power_supply": "",
    "bbq": "",
    "pets": "",
    "operator": "",
    "description": "",
    "addr": ""
  },
  {
    "name": "7th Downstream of Wasers Beach",
    "lat": -35.855096,
    "lon": 145.322556,
    "type": "campground",
    "state": "NSW",
    "slug": "7th-downstream-of-wasers-beach",
    "phone": "",
    "website": "",
    "fee": "",
    "access": "",
    "capacity": "",
    "drinking_water": "",
    "toilets": "yes",
    "shower": "",
    "power_supply": "",
    "bbq": "",
    "pets": "",
    "operator": "Parks Victoria",
    "description": "",
    "addr": ""
  },
  {
    "name": "8 Mile Flat",
    "lat": -37.197956,
    "lon": 146.429719,
    "type": "campground",
    "state": "NSW",
    "slug": "8-mile-flat",
    "phone": "",
    "website": "",
    "fee": "",
    "access": "",
    "capacity": "",
    "drinking_water": "",
    "toilets": "",
    "shower": "",
    "power_supply": "",
    "bbq": "",
    "pets": "",
    "operator": "",
    "description": "",
    "addr": ""
  },
  {
    "name": "8th Downstream of Wasers Beach",
    "lat": -35.854766,
    "lon": 145.319123,
    "type": "campground",
    "state": "NSW",
    "slug": "8th-downstream-of-wasers-beach",
    "phone": "",
    "website": "",
    "fee": "",
    "access": "",
    "capacity": "",
    "drinking_water": "",
    "toilets": "yes",
    "shower": "",
    "power_supply": "",
    "bbq": "",
    "pets": "",
    "operator": "Parks Victoria",
    "description": "",
    "addr": ""
  },
  {
    "name": "A Friend's Place",
    "lat": -35.175753,
    "lon": 150.586008,
    "type": "campground",
    "state": "NSW",
    "slug": "a-friends-place",
    "phone": "",
    "website": "https://afriends.place/",
    "fee": "",
    "access": "",
    "capacity": "",
    "drinking_water": "",
    "toilets": "",
    "shower": "",
    "power_supply": "",
    "bbq": "",
    "pets": "",
    "operator": "",
    "description": "",
    "addr": ""
  },
  {
    "name": "A-Line Holiday Village",
    "lat": -36.831761,
    "lon": 144.238057,
    "type": "caravan_park",
    "state": "NSW",
    "slug": "a-line-holiday-village",
    "phone": "",
    "website": "http://www.alineholidayvillage.com.au/",
    "fee": "",
    "access": "",
    "capacity": "",
    "drinking_water": "",
    "toilets": "",
    "shower": "",
    "power_supply": "",
    "bbq": "",
    "pets": "",
    "operator": "",
    "description": "",
    "addr": ""
  },
  {
    "name": "A-Vina Van Village",
    "lat": -33.641272,
    "lon": 150.868632,
    "type": "caravan_park",
    "state": "NSW",
    "slug": "a-vina-van-village",
    "phone": "",
    "website": "",
    "fee": "",
    "access": "",
    "capacity": "",
    "drinking_water": "",
    "toilets": "",
    "shower": "",
    "power_supply": "",
    "bbq": "",
    "pets": "",
    "operator": "",
    "description": "",
    "addr": "Commercial Road"
  },
  {
    "name": "Abbeyard Camping Area",
    "lat": -36.908906,
    "lon": 146.701034,
    "type": "campground",
    "state": "NSW",
    "slug": "abbeyard-camping-area",
    "phone": "",
    "website": "",
    "fee": "",
    "access": "",
    "capacity": "",
    "drinking_water": "",
    "toilets": "",
    "shower": "",
    "power_supply": "",
    "bbq": "",
    "pets": "",
    "operator": "",
    "description": "",
    "addr": ""
  },
  {
    "name": "Abbeyards Campground",
    "lat": -36.915242,
    "lon": 146.708317,
    "type": "campground",
    "state": "NSW",
    "slug": "abbeyards-campground",
    "phone": "",
    "website": "",
    "fee": "",
    "access": "",
    "capacity": "",
    "drinking_water": "",
    "toilets": "",
    "shower": "",
    "power_supply": "",
    "bbq": "",
    "pets": "",
    "operator": "",
    "description": "",
    "addr": ""
  },
  {
    "name": "Abercrombie Caves Campground",
    "lat": -33.91389,
    "lon": 149.35833,
    "type": "campground",
    "state": "NSW",
    "slug": "abercrombie-caves-campground",
    "phone": "",
    "website": "",
    "fee": "",
    "access": "",
    "capacity": "",
    "drinking_water": "",
    "toilets": "",
    "shower": "",
    "power_supply": "",
    "bbq": "",
    "pets": "",
    "operator": "",
    "description": "",
    "addr": ""
  },
  {
    "name": "Abercrombie River Camp",
    "lat": -33.95639,
    "lon": 149.32028,
    "type": "campground",
    "state": "NSW",
    "slug": "abercrombie-river-camp",
    "phone": "",
    "website": "",
    "fee": "",
    "access": "",
    "capacity": "",
    "drinking_water": "",
    "toilets": "",
    "shower": "",
    "power_supply": "",
    "bbq": "",
    "pets": "",
    "operator": "",
    "description": "",
    "addr": ""
  },
  {
    "name": "Abermain Bowling Club - SC only 72 hrs",
    "lat": -32.807218,
    "lon": 151.426914,
    "type": "campground",
    "state": "NSW",
    "slug": "abermain-bowling-club---sc-only-72-hrs",
    "phone": "",
    "website": "",
    "fee": "yes",
    "access": "customers",
    "capacity": "",
    "drinking_water": "",
    "toilets": "yes",
    "shower": "no",
    "power_supply": "",
    "bbq": "",
    "pets": "",
    "operator": "",
    "description": "",
    "addr": ""
  },
  {
    "name": "Acacia Caravan Park",
    "lat": -37.276318,
    "lon": 142.925565,
    "type": "caravan_park",
    "state": "NSW",
    "slug": "acacia-caravan-park",
    "phone": "",
    "website": "",
    "fee": "",
    "access": "",
    "capacity": "",
    "drinking_water": "",
    "toilets": "",
    "shower": "",
    "power_supply": "",
    "bbq": "",
    "pets": "",
    "operator": "",
    "description": "",
    "addr": ""
  },
  {
    "name": "Acacia Flat Campground",
    "lat": -33.614154,
    "lon": 150.355774,
    "type": "campground",
    "state": "NSW",
    "slug": "acacia-flat-campground",
    "phone": "",
    "website": "https://www.nationalparks.nsw.gov.au/camping-and-accommodation/campgrounds/acacia-flat-campground",
    "fee": "yes",
    "access": "yes",
    "capacity": "",
    "drinking_water": "",
    "toilets": "yes",
    "shower": "no",
    "power_supply": "",
    "bbq": "",
    "pets": "",
    "operator": "National Parks and Wildlife Service",
    "description": "Fuel stoves only.",
    "addr": ""
  },
  {
    "name": "Acacia Gardens Caravan Park",
    "lat": -36.399321,
    "lon": 145.319159,
    "type": "caravan_park",
    "state": "NSW",
    "slug": "acacia-gardens-caravan-park",
    "phone": "",
    "website": "http://www.acaciagardenscaravanpark.com.au/",
    "fee": "",
    "access": "",
    "capacity": "",
    "drinking_water": "",
    "toilets": "",
    "shower": "",
    "power_supply": "",
    "bbq": "",
    "pets": "",
    "operator": "",
    "description": "",
    "addr": ""
  },
  {
    "name": "Acacia Ponds Village",
    "lat": -36.905491,
    "lon": 149.875499,
    "type": "caravan_park",
    "state": "NSW",
    "slug": "acacia-ponds-village",
    "phone": "",
    "website": "",
    "fee": "",
    "access": "",
    "capacity": "",
    "drinking_water": "",
    "toilets": "",
    "shower": "",
    "power_supply": "",
    "bbq": "",
    "pets": "",
    "operator": "",
    "description": "",
    "addr": ""
  },
  {
    "name": "Accommodation. Fishing Haven Holiday Park",
    "lat": -29.413973,
    "lon": 153.282917,
    "type": "caravan_park",
    "state": "NSW",
    "slug": "accommodation-fishing-haven-holiday-park",
    "phone": "",
    "website": "https://www.fishinghaven.com.au/",
    "fee": "",
    "access": "",
    "capacity": "",
    "drinking_water": "",
    "toilets": "",
    "shower": "",
    "power_supply": "",
    "bbq": "",
    "pets": "",
    "operator": "",
    "description": "",
    "addr": ""
  },
  {
    "name": "Ace Caravan Park",
    "lat": -37.02215,
    "lon": 145.121815,
    "type": "caravan_park",
    "state": "NSW",
    "slug": "ace-caravan-park",
    "phone": "",
    "website": "",
    "fee": "",
    "access": "",
    "capacity": "",
    "drinking_water": "",
    "toilets": "",
    "shower": "",
    "power_supply": "",
    "bbq": "",
    "pets": "",
    "operator": "",
    "description": "",
    "addr": ""
  },
  {
    "name": "Ace Caravan Park",
    "lat": -33.923013,
    "lon": 147.197943,
    "type": "caravan_park",
    "state": "NSW",
    "slug": "ace-caravan-park-1",
    "phone": "",
    "website": "https://www.acecaravanpark.com.au/",
    "fee": "",
    "access": "",
    "capacity": "",
    "drinking_water": "",
    "toilets": "",
    "shower": "",
    "power_supply": "",
    "bbq": "",
    "pets": "",
    "operator": "",
    "description": "",
    "addr": ""
  },
  {
    "name": "Ackle Bend",
    "lat": -36.503938,
    "lon": 142.020184,
    "type": "campground",
    "state": "NSW",
    "slug": "ackle-bend",
    "phone": "",
    "website": "",
    "fee": "",
    "access": "",
    "capacity": "",
    "drinking_water": "",
    "toilets": "",
    "shower": "",
    "power_supply": "",
    "bbq": "",
    "pets": "",
    "operator": "",
    "description": "",
    "addr": ""
  },
  {
    "name": "Active Holidays BIG4 Soldiers Point",
    "lat": -32.711583,
    "lon": 152.069963,
    "type": "caravan_park",
    "state": "NSW",
    "slug": "active-holidays-big4-soldiers-point",
    "phone": "",
    "website": "",
    "fee": "yes",
    "access": "",
    "capacity": "",
    "drinking_water": "",
    "toilets": "",
    "shower": "",
    "power_supply": "",
    "bbq": "",
    "pets": "",
    "operator": "",
    "description": "",
    "addr": ""
  },
  {
    "name": "Ada River",
    "lat": -37.404196,
    "lon": 148.893322,
    "type": "campground",
    "state": "NSW",
    "slug": "ada-river",
    "phone": "",
    "website": "",
    "fee": "",
    "access": "",
    "capacity": "",
    "drinking_water": "",
    "toilets": "",
    "shower": "",
    "power_supply": "",
    "bbq": "",
    "pets": "",
    "operator": "",
    "description": "",
    "addr": ""
  },
  {
    "name": "Adventist Alpine Village",
    "lat": -36.430266,
    "lon": 148.593139,
    "type": "caravan_park",
    "state": "NSW",
    "slug": "adventist-alpine-village",
    "phone": "+61 2 6456 2738",
    "website": "https://www.alpinevillage.com.au/",
    "fee": "",
    "access": "",
    "capacity": "",
    "drinking_water": "",
    "toilets": "",
    "shower": "",
    "power_supply": "",
    "bbq": "",
    "pets": "",
    "operator": "",
    "description": "",
    "addr": ""
  },
  {
    "name": "Ah Sye's Camping Area",
    "lat": -36.731189,
    "lon": 147.733172,
    "type": "campground",
    "state": "NSW",
    "slug": "ah-syes-camping-area",
    "phone": "",
    "website": "",
    "fee": "",
    "access": "",
    "capacity": "",
    "drinking_water": "",
    "toilets": "",
    "shower": "",
    "power_supply": "",
    "bbq": "",
    "pets": "",
    "operator": "",
    "description": "",
    "addr": ""
  },
  {
    "name": "Ah Youngs Camping Area",
    "lat": -36.84167,
    "lon": 146.85111,
    "type": "campground",
    "state": "NSW",
    "slug": "ah-youngs-camping-area",
    "phone": "",
    "website": "",
    "fee": "",
    "access": "",
    "capacity": "",
    "drinking_water": "",
    "toilets": "",
    "shower": "",
    "power_supply": "",
    "bbq": "",
    "pets": "",
    "operator": "",
    "description": "",
    "addr": ""
  },
  {
    "name": "Airport Tourist Park",
    "lat": -35.148435,
    "lon": 147.465756,
    "type": "caravan_park",
    "state": "NSW",
    "slug": "airport-tourist-park",
    "phone": "",
    "website": "",
    "fee": "",
    "access": "",
    "capacity": "",
    "drinking_water": "",
    "toilets": "",
    "shower": "",
    "power_supply": "",
    "bbq": "",
    "pets": "",
    "operator": "",
    "description": "",
    "addr": ""
  },
  {
    "name": "Airport Tourist Park",
    "lat": -35.148914,
    "lon": 147.465237,
    "type": "caravan_park",
    "state": "NSW",
    "slug": "airport-tourist-park-1",
    "phone": "",
    "website": "",
    "fee": "",
    "access": "",
    "capacity": "",
    "drinking_water": "",
    "toilets": "",
    "shower": "",
    "power_supply": "",
    "bbq": "",
    "pets": "",
    "operator": "",
    "description": "",
    "addr": ""
  },
  {
    "name": "Airy Gap Campground",
    "lat": -33.109372,
    "lon": 150.039222,
    "type": "campground",
    "state": "NSW",
    "slug": "airy-gap-campground",
    "phone": "",
    "website": "",
    "fee": "yes",
    "access": "yes",
    "capacity": "",
    "drinking_water": "",
    "toilets": "",
    "shower": "",
    "power_supply": "",
    "bbq": "",
    "pets": "",
    "operator": "National Parks and Wildlife Service",
    "description": "",
    "addr": ""
  },
  {
    "name": "Alamein Caravan Park",
    "lat": -35.174751,
    "lon": 150.589808,
    "type": "campground",
    "state": "NSW",
    "slug": "alamein-caravan-park",
    "phone": "",
    "website": "https://www.alameinpark.com/",
    "fee": "",
    "access": "",
    "capacity": "",
    "drinking_water": "",
    "toilets": "",
    "shower": "",
    "power_supply": "",
    "bbq": "",
    "pets": "",
    "operator": "",
    "description": "",
    "addr": ""
  },
  {
    "name": "Albert Golf Course",
    "lat": -32.3475,
    "lon": 147.50889,
    "type": "campground",
    "state": "NSW",
    "slug": "albert-golf-course",
    "phone": "",
    "website": "",
    "fee": "",
    "access": "",
    "capacity": "",
    "drinking_water": "",
    "toilets": "",
    "shower": "",
    "power_supply": "",
    "bbq": "",
    "pets": "",
    "operator": "",
    "description": "",
    "addr": ""
  },
  {
    "name": "Albert Park Rest Area",
    "lat": -32.356534,
    "lon": 147.508741,
    "type": "campground",
    "state": "NSW",
    "slug": "albert-park-rest-area",
    "phone": "",
    "website": "",
    "fee": "no",
    "access": "",
    "capacity": "",
    "drinking_water": "",
    "toilets": "yes",
    "shower": "yes",
    "power_supply": "",
    "bbq": "",
    "pets": "",
    "operator": "Lachlan Shire Council",
    "description": "",
    "addr": ""
  },
  {
    "name": "Albury Central Tourist Park",
    "lat": -36.067397,
    "lon": 146.93463,
    "type": "caravan_park",
    "state": "NSW",
    "slug": "albury-central-tourist-park",
    "phone": "",
    "website": "https://alburytouristpark.com.au/",
    "fee": "",
    "access": "",
    "capacity": "",
    "drinking_water": "",
    "toilets": "",
    "shower": "",
    "power_supply": "",
    "bbq": "",
    "pets": "",
    "operator": "",
    "description": "",
    "addr": ""
  },
  {
    "name": "Albury Gardens Tourist Park",
    "lat": -36.042099,
    "lon": 146.957948,
    "type": "caravan_park",
    "state": "NSW",
    "slug": "albury-gardens-tourist-park",
    "phone": "",
    "website": "",
    "fee": "",
    "access": "",
    "capacity": "",
    "drinking_water": "",
    "toilets": "",
    "shower": "",
    "power_supply": "",
    "bbq": "",
    "pets": "",
    "operator": "",
    "description": "",
    "addr": "Catherine Crescent"
  },
  {
    "name": "Albury Holiday Park",
    "lat": -36.04147,
    "lon": 146.95225,
    "type": "caravan_park",
    "state": "NSW",
    "slug": "albury-holiday-park",
    "phone": "",
    "website": "https://www.alburyholidaypark.com.au/",
    "fee": "",
    "access": "",
    "capacity": "",
    "drinking_water": "",
    "toilets": "",
    "shower": "",
    "power_supply": "",
    "bbq": "",
    "pets": "",
    "operator": "",
    "description": "",
    "addr": "Wagga Road"
  },
  {
    "name": "Alex Trevallion Park",
    "lat": -30.033867,
    "lon": 148.115762,
    "type": "campground",
    "state": "NSW",
    "slug": "alex-trevallion-park",
    "phone": "",
    "website": "",
    "fee": "no",
    "access": "yes",
    "capacity": "",
    "drinking_water": "",
    "toilets": "yes",
    "shower": "yes",
    "power_supply": "no",
    "bbq": "",
    "pets": "",
    "operator": "Walgett Shire Council",
    "description": "",
    "addr": ""
  },
  {
    "name": "Alexander's Hut Campground",
    "lat": -36.720928,
    "lon": 149.46277,
    "type": "campground",
    "state": "NSW",
    "slug": "alexanders-hut-campground",
    "phone": "",
    "website": "",
    "fee": "yes",
    "access": "",
    "capacity": "",
    "drinking_water": "",
    "toilets": "",
    "shower": "",
    "power_supply": "",
    "bbq": "",
    "pets": "",
    "operator": "",
    "description": "",
    "addr": ""
  },
  {
    "name": "All the Rivers Run Caravan Park",
    "lat": -35.988552,
    "lon": 144.508856,
    "type": "caravan_park",
    "state": "NSW",
    "slug": "all-the-rivers-run-caravan-park",
    "phone": "",
    "website": "http://www.alltheriversrun.com.au/",
    "fee": "",
    "access": "",
    "capacity": "",
    "drinking_water": "",
    "toilets": "",
    "shower": "",
    "power_supply": "",
    "bbq": "",
    "pets": "",
    "operator": "",
    "description": "",
    "addr": ""
  },
  {
    "name": "Allans Flat Reserve",
    "lat": -36.274096,
    "lon": 146.909293,
    "type": "campground",
    "state": "NSW",
    "slug": "allans-flat-reserve",
    "phone": "",
    "website": "",
    "fee": "",
    "access": "",
    "capacity": "",
    "drinking_water": "",
    "toilets": "",
    "shower": "",
    "power_supply": "",
    "bbq": "",
    "pets": "",
    "operator": "",
    "description": "",
    "addr": ""
  },
  {
    "name": "Aloomba Lavender",
    "lat": -28.618502,
    "lon": 152.097233,
    "type": "campground",
    "state": "NSW",
    "slug": "aloomba-lavender",
    "phone": "+61 7 4686 1191",
    "website": "https://www.aloombalavender.com.au/",
    "fee": "yes",
    "access": "customers",
    "capacity": "",
    "drinking_water": "",
    "toilets": "yes",
    "shower": "yes",
    "power_supply": "yes",
    "bbq": "",
    "pets": "",
    "operator": "Peter & Tara, Tim & Deborah Bonner",
    "description": "Optional booking/reservation available through Hipcamp",
    "addr": "Mount Lindesay Road"
  },
  {
    "name": "Alpine Tourist Park",
    "lat": -35.996021,
    "lon": 148.769365,
    "type": "caravan_park",
    "state": "NSW",
    "slug": "alpine-tourist-park",
    "phone": "",
    "website": "",
    "fee": "",
    "access": "",
    "capacity": "",
    "drinking_water": "",
    "toilets": "",
    "shower": "",
    "power_supply": "",
    "bbq": "",
    "pets": "",
    "operator": "",
    "description": "",
    "addr": ""
  },
  {
    "name": "Alstonville Showground Camping",
    "lat": -28.839344,
    "lon": 153.440865,
    "type": "campground",
    "state": "NSW",
    "slug": "alstonville-showground-camping",
    "phone": "",
    "website": "",
    "fee": "yes",
    "access": "customers",
    "capacity": "",
    "drinking_water": "",
    "toilets": "yes",
    "shower": "yes",
    "power_supply": "yes",
    "bbq": "",
    "pets": "",
    "operator": "The Alstonville Agricultural Society Incorporated",
    "description": "",
    "addr": ""
  },
  {
    "name": "Alternate Sink Camping Area",
    "lat": -34.095602,
    "lon": 149.658614,
    "type": "campground",
    "state": "NSW",
    "slug": "alternate-sink-camping-area",
    "phone": "",
    "website": "",
    "fee": "",
    "access": "",
    "capacity": "",
    "drinking_water": "",
    "toilets": "",
    "shower": "",
    "power_supply": "",
    "bbq": "",
    "pets": "",
    "operator": "",
    "description": "",
    "addr": ""
  },
  {
    "name": "Alum Creek Campground",
    "lat": -33.757639,
    "lon": 150.13938,
    "type": "campground",
    "state": "NSW",
    "slug": "alum-creek-campground",
    "phone": "",
    "website": "https://www.nationalparks.nsw.gov.au/things-to-do/Walking-tracks/Six-Foot-walking-track",
    "fee": "no",
    "access": "",
    "capacity": "",
    "drinking_water": "",
    "toilets": "yes",
    "shower": "no",
    "power_supply": "",
    "bbq": "",
    "pets": "",
    "operator": "",
    "description": "",
    "addr": ""
  },
  {
    "name": "Ambleside on the Lake",
    "lat": -37.351586,
    "lon": 144.137498,
    "type": "campground",
    "state": "NSW",
    "slug": "ambleside-on-the-lake",
    "phone": "",
    "website": "",
    "fee": "",
    "access": "",
    "capacity": "",
    "drinking_water": "",
    "toilets": "",
    "shower": "",
    "power_supply": "",
    "bbq": "",
    "pets": "",
    "operator": "",
    "description": "",
    "addr": ""
  },
  {
    "name": "Amy Anderson Reserve",
    "lat": -33.150505,
    "lon": 149.447405,
    "type": "campground",
    "state": "NSW",
    "slug": "amy-anderson-reserve",
    "phone": "",
    "website": "",
    "fee": "",
    "access": "",
    "capacity": "",
    "drinking_water": "",
    "toilets": "yes",
    "shower": "no",
    "power_supply": "",
    "bbq": "",
    "pets": "",
    "operator": "",
    "description": "",
    "addr": ""
  },
  {
    "name": "An Oasis Holiday Park",
    "lat": -34.565838,
    "lon": 146.424075,
    "type": "campground",
    "state": "NSW",
    "slug": "an-oasis-holiday-park",
    "phone": "",
    "website": "",
    "fee": "",
    "access": "",
    "capacity": "",
    "drinking_water": "",
    "toilets": "",
    "shower": "",
    "power_supply": "",
    "bbq": "",
    "pets": "",
    "operator": "",
    "description": "",
    "addr": ""
  },
  {
    "name": "Anchorage Holiday Park",
    "lat": -29.390122,
    "lon": 153.349278,
    "type": "caravan_park",
    "state": "NSW",
    "slug": "anchorage-holiday-park",
    "phone": "",
    "website": "",
    "fee": "",
    "access": "",
    "capacity": "",
    "drinking_water": "",
    "toilets": "",
    "shower": "",
    "power_supply": "",
    "bbq": "",
    "pets": "",
    "operator": "",
    "description": "",
    "addr": "Marandowie Drive"
  },
  {
    "name": "Andersons Garden",
    "lat": -37.353297,
    "lon": 145.107619,
    "type": "campground",
    "state": "NSW",
    "slug": "andersons-garden",
    "phone": "",
    "website": "",
    "fee": "",
    "access": "yes",
    "capacity": "",
    "drinking_water": "",
    "toilets": "",
    "shower": "",
    "power_supply": "",
    "bbq": "",
    "pets": "",
    "operator": "",
    "description": "",
    "addr": ""
  },
  {
    "name": "Andrew Drynan Park",
    "lat": -28.319759,
    "lon": 152.934109,
    "type": "campground",
    "state": "NSW",
    "slug": "andrew-drynan-park",
    "phone": "+61 7 5544 1281",
    "website": "",
    "fee": "yes",
    "access": "customers",
    "capacity": "",
    "drinking_water": "no",
    "toilets": "yes",
    "shower": "no",
    "power_supply": "",
    "bbq": "",
    "pets": "",
    "operator": "",
    "description": "",
    "addr": ""
  },
  {
    "name": "Anglers Reach Caravan Park",
    "lat": -35.997584,
    "lon": 148.662005,
    "type": "caravan_park",
    "state": "NSW",
    "slug": "anglers-reach-caravan-park",
    "phone": "",
    "website": "https://anglersreach.com",
    "fee": "",
    "access": "",
    "capacity": "",
    "drinking_water": "",
    "toilets": "",
    "shower": "",
    "power_supply": "",
    "bbq": "",
    "pets": "",
    "operator": "",
    "description": "",
    "addr": ""
  },
  {
    "name": "Anglers Rest Camping Area",
    "lat": -36.99064,
    "lon": 147.489626,
    "type": "campground",
    "state": "NSW",
    "slug": "anglers-rest-camping-area",
    "phone": "",
    "website": "",
    "fee": "no",
    "access": "yes",
    "capacity": "",
    "drinking_water": "",
    "toilets": "yes",
    "shower": "no",
    "power_supply": "",
    "bbq": "",
    "pets": "",
    "operator": "Parks Victoria",
    "description": "",
    "addr": ""
  },
  {
    "name": "Anglers Rest Caravan Park",
    "lat": -34.906931,
    "lon": 150.734717,
    "type": "caravan_park",
    "state": "NSW",
    "slug": "anglers-rest-caravan-park",
    "phone": "",
    "website": "",
    "fee": "",
    "access": "",
    "capacity": "",
    "drinking_water": "",
    "toilets": "",
    "shower": "",
    "power_supply": "",
    "bbq": "",
    "pets": "",
    "operator": "",
    "description": "",
    "addr": ""
  },
  {
    "name": "Apex Beach",
    "lat": -35.81306,
    "lon": 145.54833,
    "type": "campground",
    "state": "NSW",
    "slug": "apex-beach",
    "phone": "",
    "website": "",
    "fee": "",
    "access": "",
    "capacity": "",
    "drinking_water": "",
    "toilets": "",
    "shower": "",
    "power_supply": "",
    "bbq": "",
    "pets": "",
    "operator": "",
    "description": "",
    "addr": ""
  },
  {
    "name": "Apex Camp Greenup",
    "lat": -28.465871,
    "lon": 151.255408,
    "type": "campground",
    "state": "NSW",
    "slug": "apex-camp-greenup",
    "phone": "",
    "website": "",
    "fee": "",
    "access": "",
    "capacity": "",
    "drinking_water": "",
    "toilets": "",
    "shower": "",
    "power_supply": "",
    "bbq": "",
    "pets": "",
    "operator": "",
    "description": "",
    "addr": ""
  },
  {
    "name": "Apex Caravan Park",
    "lat": -32.800503,
    "lon": 149.967433,
    "type": "caravan_park",
    "state": "NSW",
    "slug": "apex-caravan-park",
    "phone": "",
    "website": "",
    "fee": "",
    "access": "",
    "capacity": "",
    "drinking_water": "",
    "toilets": "",
    "shower": "",
    "power_supply": "",
    "bbq": "",
    "pets": "",
    "operator": "",
    "description": "",
    "addr": ""
  },
  {
    "name": "Apex Park Rest Area",
    "lat": -28.22222,
    "lon": 152.01944,
    "type": "campground",
    "state": "NSW",
    "slug": "apex-park-rest-area",
    "phone": "",
    "website": "",
    "fee": "",
    "access": "",
    "capacity": "",
    "drinking_water": "",
    "toilets": "",
    "shower": "",
    "power_supply": "",
    "bbq": "",
    "pets": "",
    "operator": "",
    "description": "",
    "addr": ""
  },
  {
    "name": "Apex RiverBeach Holiday Park",
    "lat": -34.153754,
    "lon": 142.163515,
    "type": "caravan_park",
    "state": "NSW",
    "slug": "apex-riverbeach-holiday-park",
    "phone": "+61 3 5023 6879",
    "website": "https://www.apexriverbeach.com.au/",
    "fee": "",
    "access": "",
    "capacity": "",
    "drinking_water": "",
    "toilets": "",
    "shower": "",
    "power_supply": "yes",
    "bbq": "",
    "pets": "",
    "operator": "",
    "description": "",
    "addr": "Cureton Avenue"
  },
  {
    "name": "Apple Tree Flat Campsite",
    "lat": -33.800173,
    "lon": 150.617783,
    "type": "campground",
    "state": "NSW",
    "slug": "apple-tree-flat-campsite",
    "phone": "",
    "website": "https://www.nationalparks.nsw.gov.au/camping-and-accommodation/campgrounds/euroka-campground",
    "fee": "yes",
    "access": "",
    "capacity": "",
    "drinking_water": "",
    "toilets": "yes",
    "shower": "",
    "power_supply": "",
    "bbq": "yes",
    "pets": "",
    "operator": "",
    "description": "",
    "addr": ""
  },
  {
    "name": "Apsley Gorge Campground",
    "lat": -31.053984,
    "lon": 151.762169,
    "type": "campground",
    "state": "NSW",
    "slug": "apsley-gorge-campground",
    "phone": "",
    "website": "",
    "fee": "yes",
    "access": "",
    "capacity": "",
    "drinking_water": "",
    "toilets": "yes",
    "shower": "no",
    "power_supply": "",
    "bbq": "",
    "pets": "",
    "operator": "NSW National Parks and Wildlife",
    "description": "",
    "addr": ""
  },
  {
    "name": "Aragunnu Camping Area",
    "lat": -36.584535,
    "lon": 150.047726,
    "type": "campground",
    "state": "NSW",
    "slug": "aragunnu-camping-area",
    "phone": "",
    "website": "",
    "fee": "",
    "access": "",
    "capacity": "",
    "drinking_water": "",
    "toilets": "",
    "shower": "",
    "power_supply": "",
    "bbq": "",
    "pets": "",
    "operator": "",
    "description": "",
    "addr": ""
  },
  {
    "name": "Araluen Creek",
    "lat": -35.62417,
    "lon": 149.79361,
    "type": "campground",
    "state": "NSW",
    "slug": "araluen-creek",
    "phone": "",
    "website": "",
    "fee": "no",
    "access": "",
    "capacity": "100+",
    "drinking_water": "",
    "toilets": "",
    "shower": "",
    "power_supply": "",
    "bbq": "",
    "pets": "",
    "operator": "",
    "description": "",
    "addr": "Majors Creek Araluen Road"
  },
  {
    "name": "Arderns Caravan Park",
    "lat": -36.568882,
    "lon": 146.729034,
    "type": "caravan_park",
    "state": "NSW",
    "slug": "arderns-caravan-park",
    "phone": "",
    "website": "",
    "fee": "yes",
    "access": "",
    "capacity": "",
    "drinking_water": "",
    "toilets": "",
    "shower": "",
    "power_supply": "",
    "bbq": "",
    "pets": "",
    "operator": "",
    "description": "",
    "addr": ""
  },
  {
    "name": "Ardlethan Short-Stay Caravan and Motorhome Parking",
    "lat": -34.358188,
    "lon": 146.902618,
    "type": "caravan_park",
    "state": "NSW",
    "slug": "ardlethan-short-stay-caravan-and-motorhome-parking",
    "phone": "",
    "website": "",
    "fee": "",
    "access": "yes",
    "capacity": "",
    "drinking_water": "",
    "toilets": "yes",
    "shower": "no",
    "power_supply": "yes",
    "bbq": "",
    "pets": "",
    "operator": "",
    "description": "",
    "addr": ""
  },
  {
    "name": "Area No. 1",
    "lat": -36.335222,
    "lon": 146.809951,
    "type": "campground",
    "state": "NSW",
    "slug": "area-no-1",
    "phone": "",
    "website": "",
    "fee": "",
    "access": "",
    "capacity": "",
    "drinking_water": "",
    "toilets": "",
    "shower": "",
    "power_supply": "",
    "bbq": "",
    "pets": "",
    "operator": "",
    "description": "",
    "addr": ""
  },
  {
    "name": "Area No. 2",
    "lat": -36.335907,
    "lon": 146.809871,
    "type": "campground",
    "state": "NSW",
    "slug": "area-no-2",
    "phone": "",
    "website": "",
    "fee": "",
    "access": "",
    "capacity": "",
    "drinking_water": "",
    "toilets": "",
    "shower": "",
    "power_supply": "",
    "bbq": "",
    "pets": "",
    "operator": "",
    "description": "",
    "addr": ""
  },
  {
    "name": "Area No. 3",
    "lat": -36.338163,
    "lon": 146.806804,
    "type": "campground",
    "state": "NSW",
    "slug": "area-no-3",
    "phone": "",
    "website": "",
    "fee": "",
    "access": "",
    "capacity": "",
    "drinking_water": "",
    "toilets": "",
    "shower": "",
    "power_supply": "",
    "bbq": "",
    "pets": "",
    "operator": "",
    "description": "",
    "addr": ""
  },
  {
    "name": "Area No. 4",
    "lat": -36.338521,
    "lon": 146.806511,
    "type": "campground",
    "state": "NSW",
    "slug": "area-no-4",
    "phone": "",
    "website": "",
    "fee": "",
    "access": "",
    "capacity": "",
    "drinking_water": "",
    "toilets": "",
    "shower": "",
    "power_supply": "",
    "bbq": "",
    "pets": "",
    "operator": "",
    "description": "",
    "addr": ""
  },
  {
    "name": "Area No. 5",
    "lat": -36.342996,
    "lon": 146.803266,
    "type": "campground",
    "state": "NSW",
    "slug": "area-no-5",
    "phone": "",
    "website": "",
    "fee": "",
    "access": "",
    "capacity": "",
    "drinking_water": "",
    "toilets": "",
    "shower": "",
    "power_supply": "",
    "bbq": "",
    "pets": "",
    "operator": "",
    "description": "",
    "addr": ""
  },
  {
    "name": "Area No. 6",
    "lat": -36.34684,
    "lon": 146.801378,
    "type": "campground",
    "state": "NSW",
    "slug": "area-no-6",
    "phone": "",
    "website": "",
    "fee": "",
    "access": "",
    "capacity": "",
    "drinking_water": "",
    "toilets": "",
    "shower": "",
    "power_supply": "",
    "bbq": "",
    "pets": "",
    "operator": "",
    "description": "",
    "addr": ""
  },
  {
    "name": "Ariah Park Recreation Reserve",
    "lat": -34.352157,
    "lon": 147.21881,
    "type": "campground",
    "state": "NSW",
    "slug": "ariah-park-recreation-reserve",
    "phone": "",
    "website": "",
    "fee": "yes",
    "access": "customers",
    "capacity": "",
    "drinking_water": "",
    "toilets": "yes",
    "shower": "yes",
    "power_supply": "yes",
    "bbq": "",
    "pets": "",
    "operator": "",
    "description": "",
    "addr": ""
  },
  {
    "name": "Armidale Acres - Van Park & Cabins",
    "lat": -30.461389,
    "lon": 151.682624,
    "type": "campground",
    "state": "NSW",
    "slug": "armidale-acres---van-park--cabins",
    "phone": "+61 2 6771 1281",
    "website": "",
    "fee": "yes",
    "access": "customers",
    "capacity": "",
    "drinking_water": "",
    "toilets": "",
    "shower": "",
    "power_supply": "",
    "bbq": "",
    "pets": "",
    "operator": "",
    "description": "",
    "addr": ""
  },
  {
    "name": "Armidale Showground Camping",
    "lat": -30.515284,
    "lon": 151.679931,
    "type": "campground",
    "state": "NSW",
    "slug": "armidale-showground-camping",
    "phone": "+61 400 639 630",
    "website": "https://www.armidaleshowground.org.au/pages/camping-and-caravanning",
    "fee": "yes",
    "access": "customers",
    "capacity": "",
    "drinking_water": "",
    "toilets": "",
    "shower": "",
    "power_supply": "",
    "bbq": "",
    "pets": "",
    "operator": "",
    "description": "",
    "addr": ""
  },
  {
    "name": "Armidale Tourist Park",
    "lat": -30.520301,
    "lon": 151.684948,
    "type": "campground",
    "state": "NSW",
    "slug": "armidale-tourist-park",
    "phone": "+61 2 6772 6470",
    "website": "https://www.armidaletouristpark.com.au/",
    "fee": "yes",
    "access": "customers",
    "capacity": "",
    "drinking_water": "",
    "toilets": "yes",
    "shower": "yes",
    "power_supply": "yes",
    "bbq": "",
    "pets": "",
    "operator": "Top Tourist Parks / Gday Parks",
    "description": "",
    "addr": "Grafton Road"
  },
  {
    "name": "Arnalds Camping Area",
    "lat": -35.841782,
    "lon": 145.263725,
    "type": "campground",
    "state": "NSW",
    "slug": "arnalds-camping-area",
    "phone": "",
    "website": "",
    "fee": "",
    "access": "",
    "capacity": "",
    "drinking_water": "",
    "toilets": "yes",
    "shower": "",
    "power_supply": "",
    "bbq": "",
    "pets": "",
    "operator": "Parks Victoria",
    "description": "",
    "addr": ""
  },
  {
    "name": "Arnold Springs Campground",
    "lat": -35.645358,
    "lon": 141.713018,
    "type": "campground",
    "state": "NSW",
    "slug": "arnold-springs-campground",
    "phone": "",
    "website": "",
    "fee": "",
    "access": "",
    "capacity": "",
    "drinking_water": "",
    "toilets": "",
    "shower": "",
    "power_supply": "",
    "bbq": "",
    "pets": "",
    "operator": "",
    "description": "",
    "addr": ""
  },
  {
    "name": "Ashford Caravan Park",
    "lat": -29.322957,
    "lon": 151.097729,
    "type": "campground",
    "state": "NSW",
    "slug": "ashford-caravan-park",
    "phone": "",
    "website": "",
    "fee": "yes",
    "access": "customers",
    "capacity": "",
    "drinking_water": "",
    "toilets": "yes",
    "shower": "yes",
    "power_supply": "yes",
    "bbq": "",
    "pets": "",
    "operator": "Inverell Shire Council",
    "description": "",
    "addr": ""
  },
  {
    "name": "Attunga Camp Ground",
    "lat": -30.928788,
    "lon": 150.847363,
    "type": "campground",
    "state": "NSW",
    "slug": "attunga-camp-ground",
    "phone": "",
    "website": "",
    "fee": "no",
    "access": "yes",
    "capacity": "",
    "drinking_water": "",
    "toilets": "yes",
    "shower": "no",
    "power_supply": "",
    "bbq": "",
    "pets": "",
    "operator": "Tamworth Regional Council",
    "description": "",
    "addr": ""
  },
  {
    "name": "Aukaka Caravan Park",
    "lat": -30.653416,
    "lon": 152.988723,
    "type": "caravan_park",
    "state": "NSW",
    "slug": "aukaka-caravan-park",
    "phone": "",
    "website": "",
    "fee": "",
    "access": "",
    "capacity": "",
    "drinking_water": "",
    "toilets": "",
    "shower": "",
    "power_supply": "",
    "bbq": "",
    "pets": "",
    "operator": "",
    "description": "",
    "addr": ""
  },
  {
    "name": "Austin Caravan Park",
    "lat": -31.114177,
    "lon": 150.96035,
    "type": "caravan_park",
    "state": "NSW",
    "slug": "austin-caravan-park",
    "phone": "",
    "website": "",
    "fee": "",
    "access": "",
    "capacity": "",
    "drinking_water": "",
    "toilets": "",
    "shower": "",
    "power_supply": "",
    "bbq": "",
    "pets": "",
    "operator": "Top Tourist Parks",
    "description": "",
    "addr": ""
  },
  {
    "name": "Australian Motorhomes Tourist Park",
    "lat": -32.654378,
    "lon": 151.868614,
    "type": "caravan_park",
    "state": "NSW",
    "slug": "australian-motorhomes-tourist-park",
    "phone": "",
    "website": "",
    "fee": "",
    "access": "",
    "capacity": "",
    "drinking_water": "",
    "toilets": "",
    "shower": "",
    "power_supply": "",
    "bbq": "",
    "pets": "",
    "operator": "",
    "description": "",
    "addr": ""
  },
  {
    "name": "Avoca Caravan Park",
    "lat": -37.093839,
    "lon": 143.467847,
    "type": "campground",
    "state": "NSW",
    "slug": "avoca-caravan-park",
    "phone": "+61 3 5465 3073",
    "website": "https://avoca-caravan-park.business.site/",
    "fee": "yes",
    "access": "customers",
    "capacity": "",
    "drinking_water": "",
    "toilets": "yes",
    "shower": "yes",
    "power_supply": "",
    "bbq": "",
    "pets": "",
    "operator": "",
    "description": "",
    "addr": "Liebig Street"
  },
  {
    "name": "Avon Caravanpark Village",
    "lat": -34.300636,
    "lon": 150.590154,
    "type": "caravan_park",
    "state": "NSW",
    "slug": "avon-caravanpark-village",
    "phone": "",
    "website": "",
    "fee": "",
    "access": "",
    "capacity": "",
    "drinking_water": "",
    "toilets": "",
    "shower": "",
    "power_supply": "",
    "bbq": "",
    "pets": "",
    "operator": "",
    "description": "",
    "addr": ""
  },
  {
    "name": "Avon River",
    "lat": -36.640168,
    "lon": 142.978577,
    "type": "campground",
    "state": "NSW",
    "slug": "avon-river",
    "phone": "",
    "website": "",
    "fee": "",
    "access": "",
    "capacity": "",
    "drinking_water": "",
    "toilets": "",
    "shower": "",
    "power_supply": "",
    "bbq": "",
    "pets": "",
    "operator": "",
    "description": "",
    "addr": ""
  },
  {
    "name": "Avondale Gardens Campsite",
    "lat": -36.239196,
    "lon": 147.524658,
    "type": "campground",
    "state": "NSW",
    "slug": "avondale-gardens-campsite",
    "phone": "",
    "website": "",
    "fee": "",
    "access": "",
    "capacity": "",
    "drinking_water": "",
    "toilets": "",
    "shower": "",
    "power_supply": "",
    "bbq": "",
    "pets": "",
    "operator": "",
    "description": "",
    "addr": ""
  },
  {
    "name": "Axe Track",
    "lat": -37.31044,
    "lon": 146.290993,
    "type": "campground",
    "state": "NSW",
    "slug": "axe-track",
    "phone": "",
    "website": "",
    "fee": "",
    "access": "",
    "capacity": "",
    "drinking_water": "",
    "toilets": "",
    "shower": "",
    "power_supply": "",
    "bbq": "",
    "pets": "",
    "operator": "DELWP Mansfield",
    "description": "Axe track campground is a small secluded campsite with basic facilities, although remote this spot is perfect for the avid four-wheel driver. You can camp yourself next to the Jamieson River, throw a line in, go for a swim or simply enjoy the sound of the",
    "addr": ""
  },
  {
    "name": "Aysons Reserve",
    "lat": -36.458665,
    "lon": 144.670798,
    "type": "campground",
    "state": "NSW",
    "slug": "aysons-reserve",
    "phone": "",
    "website": "",
    "fee": "no",
    "access": "",
    "capacity": "",
    "drinking_water": "",
    "toilets": "",
    "shower": "",
    "power_supply": "",
    "bbq": "",
    "pets": "",
    "operator": "",
    "description": "",
    "addr": "Burnewang Road"
  },
  {
    "name": "Aysons Reserve (Campaspe River)",
    "lat": -36.459147,
    "lon": 144.670658,
    "type": "campground",
    "state": "NSW",
    "slug": "aysons-reserve-campaspe-river",
    "phone": "",
    "website": "",
    "fee": "yes",
    "access": "",
    "capacity": "",
    "drinking_water": "",
    "toilets": "",
    "shower": "",
    "power_supply": "",
    "bbq": "",
    "pets": "",
    "operator": "",
    "description": "",
    "addr": "Burnewang Road"
  },
  {
    "name": "BIG 4 Salwater @ Yamba",
    "lat": -29.394356,
    "lon": 153.312591,
    "type": "caravan_park",
    "state": "NSW",
    "slug": "big-4-salwater--yamba",
    "phone": "",
    "website": "",
    "fee": "",
    "access": "",
    "capacity": "",
    "drinking_water": "",
    "toilets": "",
    "shower": "",
    "power_supply": "",
    "bbq": "",
    "pets": "",
    "operator": "",
    "description": "",
    "addr": ""
  },
  {
    "name": "BIG4 Albury Tourist Park",
    "lat": -36.048794,
    "lon": 146.939563,
    "type": "caravan_park",
    "state": "NSW",
    "slug": "big4-albury-tourist-park",
    "phone": "",
    "website": "",
    "fee": "",
    "access": "",
    "capacity": "",
    "drinking_water": "",
    "toilets": "yes",
    "shower": "",
    "power_supply": "",
    "bbq": "",
    "pets": "",
    "operator": "",
    "description": "",
    "addr": ""
  },
  {
    "name": "BIG4 Batemans Bay At East's Riverside Holiday Park",
    "lat": -35.703246,
    "lon": 150.182273,
    "type": "caravan_park",
    "state": "NSW",
    "slug": "big4-batemans-bay-at-easts-riverside-holiday-park",
    "phone": "",
    "website": "https://www.eastsbatemansbay.com.au/",
    "fee": "yes",
    "access": "",
    "capacity": "",
    "drinking_water": "",
    "toilets": "",
    "shower": "",
    "power_supply": "",
    "bbq": "",
    "pets": "",
    "operator": "",
    "description": "",
    "addr": ""
  },
  {
    "name": "BIG4 Batemans Bay Beach Resort",
    "lat": -35.726981,
    "lon": 150.196582,
    "type": "caravan_park",
    "state": "NSW",
    "slug": "big4-batemans-bay-beach-resort",
    "phone": "",
    "website": "https://www.beachresort.com.au/",
    "fee": "yes",
    "access": "",
    "capacity": "",
    "drinking_water": "",
    "toilets": "",
    "shower": "",
    "power_supply": "",
    "bbq": "",
    "pets": "",
    "operator": "Big 4",
    "description": "",
    "addr": ""
  },
  {
    "name": "BIG4 Bendigo Park Lane Holiday Park",
    "lat": -36.768673,
    "lon": 144.347053,
    "type": "caravan_park",
    "state": "NSW",
    "slug": "big4-bendigo-park-lane-holiday-park",
    "phone": "+61 3 5449 3335",
    "website": "www.bendigoparklane.com",
    "fee": "",
    "access": "",
    "capacity": "",
    "drinking_water": "",
    "toilets": "",
    "shower": "",
    "power_supply": "yes",
    "bbq": "",
    "pets": "",
    "operator": "",
    "description": "",
    "addr": "McIvor Highway"
  },
  {
    "name": "BIG4 Big River Holiday Park and Ski Lodge",
    "lat": -29.6103,
    "lon": 152.925755,
    "type": "caravan_park",
    "state": "NSW",
    "slug": "big4-big-river-holiday-park-and-ski-lodge",
    "phone": "+61 2 6644 9324",
    "website": "https://hampshireholidays.com.au/parks/nsw/big-river-holiday-park",
    "fee": "",
    "access": "",
    "capacity": "",
    "drinking_water": "",
    "toilets": "",
    "shower": "",
    "power_supply": "yes",
    "bbq": "",
    "pets": "",
    "operator": "",
    "description": "",
    "addr": "Ski Lodge Road"
  },
  {
    "name": "BIG4 Casino Holiday Park",
    "lat": -28.877145,
    "lon": 153.048927,
    "type": "caravan_park",
    "state": "NSW",
    "slug": "big4-casino-holiday-park",
    "phone": "+61 2 6662 1069",
    "website": "https://www.casinoholidaypark.com.au/",
    "fee": "",
    "access": "",
    "capacity": "",
    "drinking_water": "",
    "toilets": "",
    "shower": "",
    "power_supply": "yes",
    "bbq": "",
    "pets": "",
    "operator": "",
    "description": "",
    "addr": "Light Street"
  },
  {
    "name": "BIG4 Castlemaine Gardens Holiday Park",
    "lat": -37.052853,
    "lon": 144.213787,
    "type": "caravan_park",
    "state": "NSW",
    "slug": "big4-castlemaine-gardens-holiday-park",
    "phone": "+61 3 5472 1125",
    "website": "https://www.big4.com.au/caravan-parks/vic/goldfields/castlemaine-gardens-holiday-park",
    "fee": "",
    "access": "",
    "capacity": "",
    "drinking_water": "",
    "toilets": "",
    "shower": "",
    "power_supply": "",
    "bbq": "",
    "pets": "",
    "operator": "",
    "description": "",
    "addr": "Doran Avenue"
  },
  {
    "name": "BIG4 Colonial Holiday Park",
    "lat": -31.874491,
    "lon": 152.645347,
    "type": "caravan_park",
    "state": "NSW",
    "slug": "big4-colonial-holiday-park",
    "phone": "",
    "website": "",
    "fee": "",
    "access": "",
    "capacity": "",
    "drinking_water": "",
    "toilets": "",
    "shower": "",
    "power_supply": "",
    "bbq": "",
    "pets": "",
    "operator": "",
    "description": "",
    "addr": "Harrington Road"
  },
  {
    "name": "BIG4 Freedom Lifestyle Holiday Park Warwick",
    "lat": -28.229048,
    "lon": 152.019443,
    "type": "caravan_park",
    "state": "NSW",
    "slug": "big4-freedom-lifestyle-holiday-park-warwick",
    "phone": "",
    "website": "https://freedomlifestyleparks.com.au/warwick/",
    "fee": "yes",
    "access": "",
    "capacity": "",
    "drinking_water": "yes",
    "toilets": "yes",
    "shower": "",
    "power_supply": "yes",
    "bbq": "",
    "pets": "",
    "operator": "",
    "description": "",
    "addr": ""
  },
  {
    "name": "BIG4 Goondiwindi Holiday Park",
    "lat": -28.533098,
    "lon": 150.323028,
    "type": "caravan_park",
    "state": "NSW",
    "slug": "big4-goondiwindi-holiday-park",
    "phone": "",
    "website": "https://goondiwindiholidaypark.com.au/",
    "fee": "",
    "access": "",
    "capacity": "",
    "drinking_water": "",
    "toilets": "",
    "shower": "",
    "power_supply": "",
    "bbq": "",
    "pets": "",
    "operator": "",
    "description": "",
    "addr": "Old Cunningham Highway"
  },
  {
    "name": "BIG4 Hay Plains Holiday Park",
    "lat": -34.51867,
    "lon": 144.843966,
    "type": "caravan_park",
    "state": "NSW",
    "slug": "big4-hay-plains-holiday-park",
    "phone": "",
    "website": "",
    "fee": "",
    "access": "",
    "capacity": "",
    "drinking_water": "",
    "toilets": "",
    "shower": "",
    "power_supply": "",
    "bbq": "",
    "pets": "",
    "operator": "",
    "description": "",
    "addr": ""
  },
  {
    "name": "BIG4 Holiday Parks",
    "lat": -36.724487,
    "lon": 149.977449,
    "type": "caravan_park",
    "state": "NSW",
    "slug": "big4-holiday-parks",
    "phone": "",
    "website": "",
    "fee": "yes",
    "access": "",
    "capacity": "",
    "drinking_water": "",
    "toilets": "",
    "shower": "",
    "power_supply": "",
    "bbq": "",
    "pets": "",
    "operator": "Big 4",
    "description": "",
    "addr": ""
  },
  {
    "name": "BIG4 Ingenia Holidays Broulee",
    "lat": -35.857247,
    "lon": 150.174237,
    "type": "caravan_park",
    "state": "NSW",
    "slug": "big4-ingenia-holidays-broulee",
    "phone": "",
    "website": "",
    "fee": "",
    "access": "",
    "capacity": "",
    "drinking_water": "",
    "toilets": "",
    "shower": "",
    "power_supply": "",
    "bbq": "",
    "pets": "",
    "operator": "",
    "description": "",
    "addr": ""
  },
  {
    "name": "BIG4 Ingenia Holidays Eden Beachfront",
    "lat": -37.077419,
    "lon": 149.875568,
    "type": "caravan_park",
    "state": "NSW",
    "slug": "big4-ingenia-holidays-eden-beachfront",
    "phone": "+61 2 6496 1651",
    "website": "https://www.edenbeachfrontholidaypark.com.au/",
    "fee": "yes",
    "access": "",
    "capacity": "",
    "drinking_water": "",
    "toilets": "",
    "shower": "",
    "power_supply": "yes",
    "bbq": "",
    "pets": "",
    "operator": "",
    "description": "",
    "addr": "Princes Highway"
  },
  {
    "name": "BIG4 Manning Point Holiday Park",
    "lat": -31.895681,
    "lon": 152.663119,
    "type": "caravan_park",
    "state": "NSW",
    "slug": "big4-manning-point-holiday-park",
    "phone": "",
    "website": "https://hampshireholidays.com.au/parks/nsw/manning-point-holiday-park",
    "fee": "",
    "access": "",
    "capacity": "",
    "drinking_water": "",
    "toilets": "",
    "shower": "",
    "power_supply": "",
    "bbq": "",
    "pets": "",
    "operator": "Big 4 Holiday Parks",
    "description": "",
    "addr": "Manning Street"
  },
  {
    "name": "BIG4 Mildura Getaway - Holiday Park Mildura",
    "lat": -34.208232,
    "lon": 142.136322,
    "type": "caravan_park",
    "state": "NSW",
    "slug": "big4-mildura-getaway---holiday-park-mildura",
    "phone": "",
    "website": "",
    "fee": "",
    "access": "",
    "capacity": "",
    "drinking_water": "",
    "toilets": "",
    "shower": "",
    "power_supply": "",
    "bbq": "",
    "pets": "",
    "operator": "",
    "description": "",
    "addr": ""
  },
  {
    "name": "BIG4 Moruya Heads East's Dolphin Beach Holiday Park",
    "lat": -35.918874,
    "lon": 150.154042,
    "type": "caravan_park",
    "state": "NSW",
    "slug": "big4-moruya-heads-easts-dolphin-beach-holiday-park",
    "phone": "",
    "website": "",
    "fee": "",
    "access": "",
    "capacity": "",
    "drinking_water": "",
    "toilets": "",
    "shower": "",
    "power_supply": "",
    "bbq": "",
    "pets": "",
    "operator": "",
    "description": "",
    "addr": ""
  },
  {
    "name": "BIG4 Mudgee Holiday Park",
    "lat": -32.613554,
    "lon": 149.600174,
    "type": "caravan_park",
    "state": "NSW",
    "slug": "big4-mudgee-holiday-park",
    "phone": "",
    "website": "https://www.mudgeeholidaypark.com.au/",
    "fee": "",
    "access": "",
    "capacity": "",
    "drinking_water": "",
    "toilets": "",
    "shower": "",
    "power_supply": "",
    "bbq": "",
    "pets": "",
    "operator": "",
    "description": "",
    "addr": ""
  },
  {
    "name": "BIG4 NRMA Mildura Riverside Holiday Park",
    "lat": -34.174248,
    "lon": 142.123613,
    "type": "caravan_park",
    "state": "NSW",
    "slug": "big4-nrma-mildura-riverside-holiday-park",
    "phone": "+61 3 5021 2299",
    "website": "https://www.big4.com.au/caravan-parks/vic/murray/mildura-golden-river-holiday-park",
    "fee": "",
    "access": "",
    "capacity": "",
    "drinking_water": "",
    "toilets": "",
    "shower": "",
    "power_supply": "",
    "bbq": "",
    "pets": "",
    "operator": "",
    "description": "",
    "addr": "Flora Avenue"
  },
  {
    "name": "BIG4 NRMA Yarrawonga Mulwala Holiday Park",
    "lat": -35.975156,
    "lon": 146.024076,
    "type": "caravan_park",
    "state": "NSW",
    "slug": "big4-nrma-yarrawonga-mulwala-holiday-park",
    "phone": "+61 3 5743 2888",
    "website": "https://www.nrmaparksandresorts.com.au/yarrawonga-mulwala/",
    "fee": "yes",
    "access": "",
    "capacity": "",
    "drinking_water": "",
    "toilets": "",
    "shower": "",
    "power_supply": "yes",
    "bbq": "",
    "pets": "",
    "operator": "big4, nrma",
    "description": "Set between the country townships of Mulwala and Yarrawonga and directly opposite the pristine Lake Mulwala, it\u2019s the perfect spot to stay and soak up the beauty of the Murray River region.",
    "addr": "Corowa Road"
  },
  {
    "name": "BIG4 Narooma East's Holiday Park",
    "lat": -36.214263,
    "lon": 150.125754,
    "type": "caravan_park",
    "state": "NSW",
    "slug": "big4-narooma-easts-holiday-park",
    "phone": "",
    "website": "https://www.eastsnarooma.com.au/",
    "fee": "",
    "access": "",
    "capacity": "",
    "drinking_water": "",
    "toilets": "",
    "shower": "",
    "power_supply": "",
    "bbq": "",
    "pets": "",
    "operator": "",
    "description": "",
    "addr": ""
  },
  {
    "name": "BIG4 Nelligen Holiday Park",
    "lat": -35.644415,
    "lon": 150.136011,
    "type": "caravan_park",
    "state": "NSW",
    "slug": "big4-nelligen-holiday-park",
    "phone": "",
    "website": "https://hampshireholidays.com.au/parks/nsw/nelligen-holiday-park",
    "fee": "",
    "access": "",
    "capacity": "",
    "drinking_water": "",
    "toilets": "",
    "shower": "",
    "power_supply": "",
    "bbq": "",
    "pets": "",
    "operator": "",
    "description": "",
    "addr": ""
  },
  {
    "name": "BIG4 Opal Holiday Park",
    "lat": -29.425803,
    "lon": 147.995664,
    "type": "caravan_park",
    "state": "NSW",
    "slug": "big4-opal-holiday-park",
    "phone": "",
    "website": "https://hampshireholidays.com.au/parks/nsw/opal-holiday-park",
    "fee": "",
    "access": "",
    "capacity": "",
    "drinking_water": "",
    "toilets": "",
    "shower": "",
    "power_supply": "yes",
    "bbq": "",
    "pets": "",
    "operator": "",
    "description": "",
    "addr": "Pandora Street"
  },
  {
    "name": "BIG4 Red Cliffs Caravan Park",
    "lat": -34.297272,
    "lon": 142.187654,
    "type": "caravan_park",
    "state": "NSW",
    "slug": "big4-red-cliffs-caravan-park",
    "phone": "",
    "website": "",
    "fee": "",
    "access": "",
    "capacity": "",
    "drinking_water": "",
    "toilets": "",
    "shower": "",
    "power_supply": "",
    "bbq": "",
    "pets": "",
    "operator": "",
    "description": "",
    "addr": ""
  },
  {
    "name": "BIG4 River Myall Holiday Resort",
    "lat": -32.411352,
    "lon": 152.206584,
    "type": "caravan_park",
    "state": "NSW",
    "slug": "big4-river-myall-holiday-resort",
    "phone": "",
    "website": "https://www.big4.com.au/caravan-parks/nsw/north-coast/river-myall-holiday-resort",
    "fee": "",
    "access": "",
    "capacity": "",
    "drinking_water": "",
    "toilets": "",
    "shower": "",
    "power_supply": "",
    "bbq": "",
    "pets": "",
    "operator": "",
    "description": "",
    "addr": "Stroud Street"
  },
  {
    "name": "BIG4 Riverside Swan Hill",
    "lat": -35.342944,
    "lon": 143.564561,
    "type": "caravan_park",
    "state": "NSW",
    "slug": "big4-riverside-swan-hill",
    "phone": "+61 3 5032 1494",
    "website": "https://www.big4riversideswanhill.com.au/",
    "fee": "",
    "access": "",
    "capacity": "",
    "drinking_water": "",
    "toilets": "",
    "shower": "",
    "power_supply": "yes",
    "bbq": "",
    "pets": "",
    "operator": "",
    "description": "",
    "addr": "Monash Drive"
  },
  {
    "name": "BIG4 South Durras Holiday Park",
    "lat": -35.655404,
    "lon": 150.292282,
    "type": "caravan_park",
    "state": "NSW",
    "slug": "big4-south-durras-holiday-park",
    "phone": "+61 2 4478 6028",
    "website": "",
    "fee": "",
    "access": "customers",
    "capacity": "",
    "drinking_water": "",
    "toilets": "",
    "shower": "",
    "power_supply": "",
    "bbq": "",
    "pets": "",
    "operator": "BIG4",
    "description": "",
    "addr": "Beagle Bay Road"
  },
  {
    "name": "BIG4 Taggerty Holiday Park",
    "lat": -37.317679,
    "lon": 145.712133,
    "type": "caravan_park",
    "state": "NSW",
    "slug": "big4-taggerty-holiday-park",
    "phone": "",
    "website": "https://www.big4.com.au/caravan-parks/vic/yarra-valley-dandenong-ranges/taggerty-holiday-park",
    "fee": "",
    "access": "",
    "capacity": "",
    "drinking_water": "",
    "toilets": "",
    "shower": "",
    "power_supply": "",
    "bbq": "",
    "pets": "",
    "operator": "",
    "description": "",
    "addr": ""
  },
  {
    "name": "BIG4 Wagga Wagga Holiday Park",
    "lat": -35.119878,
    "lon": 147.389512,
    "type": "caravan_park",
    "state": "NSW",
    "slug": "big4-wagga-wagga-holiday-park",
    "phone": "",
    "website": "",
    "fee": "",
    "access": "",
    "capacity": "",
    "drinking_water": "",
    "toilets": "",
    "shower": "",
    "power_supply": "",
    "bbq": "",
    "pets": "",
    "operator": "",
    "description": "",
    "addr": ""
  },
  {
    "name": "BIG4 Wallaga Lake Holiday Park",
    "lat": -36.381544,
    "lon": 150.069519,
    "type": "caravan_park",
    "state": "NSW",
    "slug": "big4-wallaga-lake-holiday-park",
    "phone": "",
    "website": "https://hampshireholidays.com.au/parks/nsw/wallaga-lake-holiday-park",
    "fee": "",
    "access": "",
    "capacity": "",
    "drinking_water": "",
    "toilets": "",
    "shower": "",
    "power_supply": "",
    "bbq": "",
    "pets": "",
    "operator": "Big 4",
    "description": "",
    "addr": ""
  },
  {
    "name": "BIG4 Wallaga Lake Holiday Park",
    "lat": -36.373778,
    "lon": 150.070141,
    "type": "caravan_park",
    "state": "NSW",
    "slug": "big4-wallaga-lake-holiday-park-1",
    "phone": "",
    "website": "https://www.big4.com.au/caravan-parks/nsw/south-coast/big4-wallaga-lake-holiday-park",
    "fee": "",
    "access": "",
    "capacity": "",
    "drinking_water": "",
    "toilets": "",
    "shower": "",
    "power_supply": "",
    "bbq": "",
    "pets": "",
    "operator": "",
    "description": "",
    "addr": ""
  },
  {
    "name": "Baan Baa Old School Campground",
    "lat": -30.599907,
    "lon": 149.951571,
    "type": "campground",
    "state": "NSW",
    "slug": "baan-baa-old-school-campground",
    "phone": "+61 427 289 339",
    "website": "",
    "fee": "yes",
    "access": "customers",
    "capacity": "",
    "drinking_water": "",
    "toilets": "yes",
    "shower": "yes",
    "power_supply": "",
    "bbq": "",
    "pets": "",
    "operator": "Private",
    "description": "",
    "addr": "Bundah Street"
  },
  {
    "name": "Baden Park Rest Area",
    "lat": -31.713391,
    "lon": 144.143309,
    "type": "campground",
    "state": "NSW",
    "slug": "baden-park-rest-area",
    "phone": "",
    "website": "",
    "fee": "no",
    "access": "yes",
    "capacity": "",
    "drinking_water": "",
    "toilets": "yes",
    "shower": "no",
    "power_supply": "",
    "bbq": "",
    "pets": "",
    "operator": "",
    "description": "",
    "addr": ""
  },
  {
    "name": "Badgee Park Caravan And Camping Area",
    "lat": -35.153653,
    "lon": 150.594967,
    "type": "campground",
    "state": "NSW",
    "slug": "badgee-park-caravan-and-camping-area",
    "phone": "",
    "website": "",
    "fee": "",
    "access": "",
    "capacity": "",
    "drinking_water": "",
    "toilets": "",
    "shower": "",
    "power_supply": "",
    "bbq": "",
    "pets": "",
    "operator": "",
    "description": "",
    "addr": ""
  },
  {
    "name": "Badja Recreation Reserve - East",
    "lat": -36.17414,
    "lon": 149.350687,
    "type": "campground",
    "state": "NSW",
    "slug": "badja-recreation-reserve---east",
    "phone": "",
    "website": "",
    "fee": "no",
    "access": "yes",
    "capacity": "",
    "drinking_water": "",
    "toilets": "yes",
    "shower": "no",
    "power_supply": "",
    "bbq": "",
    "pets": "",
    "operator": "Snowy Monaro Shire Council",
    "description": "",
    "addr": ""
  },
  {
    "name": "Badja Recreation Reserve - West",
    "lat": -36.174283,
    "lon": 149.348498,
    "type": "campground",
    "state": "NSW",
    "slug": "badja-recreation-reserve---west",
    "phone": "",
    "website": "",
    "fee": "no",
    "access": "yes",
    "capacity": "",
    "drinking_water": "",
    "toilets": "yes",
    "shower": "no",
    "power_supply": "",
    "bbq": "",
    "pets": "",
    "operator": "Snowy Monaro Shire Council",
    "description": "",
    "addr": ""
  },
  {
    "name": "Baerami Community Hall",
    "lat": -32.3865,
    "lon": 150.466778,
    "type": "campground",
    "state": "NSW",
    "slug": "baerami-community-hall",
    "phone": "",
    "website": "",
    "fee": "",
    "access": "private",
    "capacity": "",
    "drinking_water": "",
    "toilets": "yes",
    "shower": "",
    "power_supply": "",
    "bbq": "",
    "pets": "",
    "operator": "Baerami Community Hall",
    "description": "",
    "addr": ""
  },
  {
    "name": "Bailes Picnic and Camping Area",
    "lat": -37.316152,
    "lon": 143.240079,
    "type": "campground",
    "state": "NSW",
    "slug": "bailes-picnic-and-camping-area",
    "phone": "",
    "website": "",
    "fee": "",
    "access": "",
    "capacity": "",
    "drinking_water": "",
    "toilets": "",
    "shower": "",
    "power_supply": "",
    "bbq": "",
    "pets": "",
    "operator": "",
    "description": "",
    "addr": ""
  },
  {
    "name": "Baileys Rocks Campground",
    "lat": -37.28806,
    "lon": 141.17722,
    "type": "campground",
    "state": "NSW",
    "slug": "baileys-rocks-campground",
    "phone": "",
    "website": "",
    "fee": "no",
    "access": "",
    "capacity": "",
    "drinking_water": "",
    "toilets": "yes",
    "shower": "no",
    "power_supply": "",
    "bbq": "",
    "pets": "",
    "operator": "Parks Victoria",
    "description": "",
    "addr": ""
  },
  {
    "name": "Bakers Flat Camping Area",
    "lat": -35.747597,
    "lon": 149.927481,
    "type": "campground",
    "state": "NSW",
    "slug": "bakers-flat-camping-area",
    "phone": "",
    "website": "",
    "fee": "",
    "access": "",
    "capacity": "",
    "drinking_water": "",
    "toilets": "",
    "shower": "",
    "power_supply": "",
    "bbq": "",
    "pets": "",
    "operator": "",
    "description": "",
    "addr": ""
  },
  {
    "name": "Bakers Shaft Reserve",
    "lat": -33.60944,
    "lon": 149.01194,
    "type": "campground",
    "state": "NSW",
    "slug": "bakers-shaft-reserve",
    "phone": "",
    "website": "",
    "fee": "",
    "access": "",
    "capacity": "",
    "drinking_water": "",
    "toilets": "",
    "shower": "",
    "power_supply": "",
    "bbq": "",
    "pets": "",
    "operator": "",
    "description": "",
    "addr": ""
  },
  {
    "name": "Bald Hills Camping Area",
    "lat": -31.756921,
    "lon": 150.012482,
    "type": "campground",
    "state": "NSW",
    "slug": "bald-hills-camping-area",
    "phone": "",
    "website": "",
    "fee": "",
    "access": "",
    "capacity": "",
    "drinking_water": "",
    "toilets": "",
    "shower": "",
    "power_supply": "",
    "bbq": "",
    "pets": "",
    "operator": "",
    "description": "",
    "addr": ""
  },
  {
    "name": "Bald Rock Camping Area",
    "lat": -28.845097,
    "lon": 152.045593,
    "type": "campground",
    "state": "NSW",
    "slug": "bald-rock-camping-area",
    "phone": "",
    "website": "",
    "fee": "",
    "access": "",
    "capacity": "",
    "drinking_water": "",
    "toilets": "",
    "shower": "",
    "power_supply": "",
    "bbq": "",
    "pets": "",
    "operator": "",
    "description": "",
    "addr": ""
  },
  {
    "name": "Bald Rock Creek Camping Area",
    "lat": -28.832905,
    "lon": 151.934649,
    "type": "campground",
    "state": "NSW",
    "slug": "bald-rock-creek-camping-area",
    "phone": "",
    "website": "http://www.derm.qld.gov.au/parks/girraween/camping.html",
    "fee": "",
    "access": "",
    "capacity": "",
    "drinking_water": "",
    "toilets": "",
    "shower": "",
    "power_supply": "",
    "bbq": "",
    "pets": "",
    "operator": "",
    "description": "",
    "addr": ""
  },
  {
    "name": "Ball Park Caravan Park",
    "lat": -36.004722,
    "lon": 146.396181,
    "type": "caravan_park",
    "state": "NSW",
    "slug": "ball-park-caravan-park",
    "phone": "+61 2 6033 1426",
    "website": "www.ballparkcaravanpark.com.au",
    "fee": "yes",
    "access": "",
    "capacity": "",
    "drinking_water": "",
    "toilets": "",
    "shower": "",
    "power_supply": "yes",
    "bbq": "",
    "pets": "",
    "operator": "",
    "description": "",
    "addr": "Bridge Road"
  },
  {
    "name": "Ballina Beach Village",
    "lat": -28.885902,
    "lon": 153.568283,
    "type": "caravan_park",
    "state": "NSW",
    "slug": "ballina-beach-village",
    "phone": "+61 2 6686 3347",
    "website": "https://www.ballinabeachvillage.com.au/",
    "fee": "",
    "access": "",
    "capacity": "",
    "drinking_water": "",
    "toilets": "",
    "shower": "",
    "power_supply": "yes",
    "bbq": "",
    "pets": "",
    "operator": "",
    "description": "",
    "addr": "South Ballina Beach Road"
  },
  {
    "name": "Ballina Rental Village",
    "lat": -28.848314,
    "lon": 153.552173,
    "type": "caravan_park",
    "state": "NSW",
    "slug": "ballina-rental-village",
    "phone": "",
    "website": "https://www.ballinarentalvillage.com.au/",
    "fee": "",
    "access": "",
    "capacity": "",
    "drinking_water": "",
    "toilets": "",
    "shower": "",
    "power_supply": "",
    "bbq": "",
    "pets": "",
    "operator": "",
    "description": "",
    "addr": "Tamarind Drive"
  },
  {
    "name": "Ballina Waterfront Village",
    "lat": -28.865479,
    "lon": 153.524011,
    "type": "caravan_park",
    "state": "NSW",
    "slug": "ballina-waterfront-village",
    "phone": "",
    "website": "",
    "fee": "",
    "access": "",
    "capacity": "",
    "drinking_water": "",
    "toilets": "yes",
    "shower": "yes",
    "power_supply": "yes",
    "bbq": "",
    "pets": "",
    "operator": "",
    "description": "",
    "addr": "River Street"
  },
  {
    "name": "Balonne Minor Campsite",
    "lat": -28.59889,
    "lon": 148.20944,
    "type": "campground",
    "state": "NSW",
    "slug": "balonne-minor-campsite",
    "phone": "",
    "website": "",
    "fee": "no",
    "access": "yes",
    "capacity": "",
    "drinking_water": "",
    "toilets": "yes",
    "shower": "",
    "power_supply": "",
    "bbq": "",
    "pets": "",
    "operator": "Balonne Shire Council",
    "description": "",
    "addr": ""
  },
  {
    "name": "Balranald Caravan Park",
    "lat": -34.644155,
    "lon": 143.565219,
    "type": "campground",
    "state": "NSW",
    "slug": "balranald-caravan-park",
    "phone": "",
    "website": "http://www.balranaldcaravanpark.com.au/",
    "fee": "yes",
    "access": "customers",
    "capacity": "",
    "drinking_water": "",
    "toilets": "yes",
    "shower": "yes",
    "power_supply": "yes",
    "bbq": "",
    "pets": "",
    "operator": "",
    "description": "",
    "addr": ""
  },
  {
    "name": "Bananacoast Caravan Park",
    "lat": -30.269192,
    "lon": 153.132316,
    "type": "caravan_park",
    "state": "NSW",
    "slug": "bananacoast-caravan-park",
    "phone": "",
    "website": "https://bananacoastcaravanpark.com",
    "fee": "",
    "access": "",
    "capacity": "",
    "drinking_water": "",
    "toilets": "",
    "shower": "",
    "power_supply": "",
    "bbq": "",
    "pets": "",
    "operator": "",
    "description": "",
    "addr": ""
  },
  {
    "name": "Bangalow Campground",
    "lat": -33.016527,
    "lon": 151.42503,
    "type": "campground",
    "state": "NSW",
    "slug": "bangalow-campground",
    "phone": "",
    "website": "https://www.nationalparks.nsw.gov.au/camping-and-accommodation/campgrounds/bangalow-campground",
    "fee": "no",
    "access": "",
    "capacity": "3",
    "drinking_water": "",
    "toilets": "yes",
    "shower": "no",
    "power_supply": "",
    "bbq": "yes",
    "pets": "",
    "operator": "",
    "description": "",
    "addr": ""
  },
  {
    "name": "Banksia Green Camping Area",
    "lat": -32.549569,
    "lon": 152.307605,
    "type": "campground",
    "state": "NSW",
    "slug": "banksia-green-camping-area",
    "phone": "",
    "website": "https://www.nationalparks.nsw.gov.au/camping-and-accommodation/campgrounds/banksia-green-campground",
    "fee": "yes",
    "access": "",
    "capacity": "",
    "drinking_water": "no",
    "toilets": "yes",
    "shower": "no",
    "power_supply": "no",
    "bbq": "",
    "pets": "no",
    "operator": "",
    "description": "Payment machine is just up the road at Mungo Brush campsite. No payment machine on site.",
    "addr": ""
  },
  {
    "name": "Banksia Grove Village",
    "lat": -32.805556,
    "lon": 151.864418,
    "type": "caravan_park",
    "state": "NSW",
    "slug": "banksia-grove-village",
    "phone": "",
    "website": "https://www.banksiagrovevillage.com.au/",
    "fee": "",
    "access": "",
    "capacity": "",
    "drinking_water": "",
    "toilets": "",
    "shower": "",
    "power_supply": "",
    "bbq": "",
    "pets": "",
    "operator": "",
    "description": "",
    "addr": ""
  },
  {
    "name": "Banyande Bay",
    "lat": -33.94615,
    "lon": 149.029181,
    "type": "campground",
    "state": "NSW",
    "slug": "banyande-bay",
    "phone": "",
    "website": "",
    "fee": "",
    "access": "",
    "capacity": "",
    "drinking_water": "",
    "toilets": "",
    "shower": "",
    "power_supply": "",
    "bbq": "",
    "pets": "",
    "operator": "",
    "description": "",
    "addr": ""
  },
  {
    "name": "Bar and Grill - Camping - sign",
    "lat": -32.933369,
    "lon": 149.890922,
    "type": "campground",
    "state": "NSW",
    "slug": "bar-and-grill---camping---sign",
    "phone": "",
    "website": "",
    "fee": "yes",
    "access": "",
    "capacity": "",
    "drinking_water": "",
    "toilets": "",
    "shower": "",
    "power_supply": "yes",
    "bbq": "",
    "pets": "",
    "operator": "",
    "description": "",
    "addr": ""
  },
  {
    "name": "Barbour Park Free Caravan Park",
    "lat": -34.779216,
    "lon": 149.268403,
    "type": "campground",
    "state": "NSW",
    "slug": "barbour-park-free-caravan-park",
    "phone": "",
    "website": "",
    "fee": "no",
    "access": "yes",
    "capacity": "",
    "drinking_water": "",
    "toilets": "yes",
    "shower": "yes",
    "power_supply": "",
    "bbq": "",
    "pets": "",
    "operator": "Upper Lachlan Shire Council",
    "description": "",
    "addr": ""
  },
  {
    "name": "Barham Holiday Park",
    "lat": -35.640512,
    "lon": 144.139886,
    "type": "caravan_park",
    "state": "NSW",
    "slug": "barham-holiday-park",
    "phone": "",
    "website": "https://www.familyparks.com.au/caravan-parks/australia/new-south-wales/barham-holiay-park/",
    "fee": "",
    "access": "",
    "capacity": "",
    "drinking_water": "",
    "toilets": "",
    "shower": "",
    "power_supply": "",
    "bbq": "",
    "pets": "",
    "operator": "",
    "description": "",
    "addr": ""
  },
  {
    "name": "Barigar Hike-in Campground",
    "lat": -36.954204,
    "lon": 142.436516,
    "type": "campground",
    "state": "NSW",
    "slug": "barigar-hike-in-campground",
    "phone": "",
    "website": "",
    "fee": "yes",
    "access": "yes",
    "capacity": "24",
    "drinking_water": "no",
    "toilets": "yes",
    "shower": "no",
    "power_supply": "yes",
    "bbq": "",
    "pets": "",
    "operator": "",
    "description": "",
    "addr": ""
  },
  {
    "name": "Barigar hike-in camp",
    "lat": -36.953609,
    "lon": 142.436013,
    "type": "campground",
    "state": "NSW",
    "slug": "barigar-hike-in-camp",
    "phone": "",
    "website": "",
    "fee": "",
    "access": "",
    "capacity": "",
    "drinking_water": "",
    "toilets": "",
    "shower": "",
    "power_supply": "",
    "bbq": "",
    "pets": "",
    "operator": "",
    "description": "",
    "addr": ""
  },
  {
    "name": "Bark Hut",
    "lat": -30.29028,
    "lon": 150.14306,
    "type": "campground",
    "state": "NSW",
    "slug": "bark-hut",
    "phone": "",
    "website": "",
    "fee": "yes",
    "access": "",
    "capacity": "",
    "drinking_water": "",
    "toilets": "yes",
    "shower": "",
    "power_supply": "",
    "bbq": "",
    "pets": "",
    "operator": "NSW National Parks and Wildlife Service",
    "description": "",
    "addr": ""
  },
  {
    "name": "Barling Beach Holiday Park",
    "lat": -35.827792,
    "lon": 150.203581,
    "type": "caravan_park",
    "state": "NSW",
    "slug": "barling-beach-holiday-park",
    "phone": "",
    "website": "https://aspenholidayparks.com.au/barlings-beach-holiday-park/",
    "fee": "yes",
    "access": "",
    "capacity": "",
    "drinking_water": "yes",
    "toilets": "yes",
    "shower": "yes",
    "power_supply": "yes",
    "bbq": "",
    "pets": "",
    "operator": "",
    "description": "",
    "addr": ""
  },
  {
    "name": "Barmah Bridge Caravan Park",
    "lat": -36.017775,
    "lon": 144.955376,
    "type": "caravan_park",
    "state": "NSW",
    "slug": "barmah-bridge-caravan-park",
    "phone": "",
    "website": "https://barmahbridgecaravanpark.com.au/",
    "fee": "",
    "access": "",
    "capacity": "",
    "drinking_water": "",
    "toilets": "",
    "shower": "",
    "power_supply": "",
    "bbq": "",
    "pets": "",
    "operator": "",
    "description": "",
    "addr": ""
  },
  {
    "name": "Barmah Lakes Campground",
    "lat": -35.956248,
    "lon": 144.958945,
    "type": "campground",
    "state": "NSW",
    "slug": "barmah-lakes-campground",
    "phone": "",
    "website": "",
    "fee": "",
    "access": "",
    "capacity": "",
    "drinking_water": "",
    "toilets": "",
    "shower": "",
    "power_supply": "",
    "bbq": "",
    "pets": "",
    "operator": "",
    "description": "",
    "addr": ""
  },
  {
    "name": "Barmedman Mineral Pool - north campsite",
    "lat": -34.1387,
    "lon": 147.385981,
    "type": "campground",
    "state": "NSW",
    "slug": "barmedman-mineral-pool---north-campsite",
    "phone": "",
    "website": "",
    "fee": "yes",
    "access": "yes",
    "capacity": "",
    "drinking_water": "",
    "toilets": "yes",
    "shower": "yes",
    "power_supply": "no",
    "bbq": "",
    "pets": "",
    "operator": "",
    "description": "",
    "addr": ""
  },
  {
    "name": "Barmedman Mineral Pool - south campsite",
    "lat": -34.139932,
    "lon": 147.386364,
    "type": "campground",
    "state": "NSW",
    "slug": "barmedman-mineral-pool---south-campsite",
    "phone": "",
    "website": "",
    "fee": "yes",
    "access": "yes",
    "capacity": "",
    "drinking_water": "",
    "toilets": "yes",
    "shower": "yes",
    "power_supply": "no",
    "bbq": "",
    "pets": "",
    "operator": "",
    "description": "",
    "addr": ""
  },
  {
    "name": "Barnewall Plains Camping Area",
    "lat": -37.357995,
    "lon": 145.926749,
    "type": "campground",
    "state": "NSW",
    "slug": "barnewall-plains-camping-area",
    "phone": "",
    "website": "",
    "fee": "",
    "access": "",
    "capacity": "",
    "drinking_water": "",
    "toilets": "",
    "shower": "",
    "power_supply": "",
    "bbq": "",
    "pets": "",
    "operator": "",
    "description": "",
    "addr": ""
  },
  {
    "name": "Barney Gorge Junction",
    "lat": -28.259411,
    "lon": 152.684749,
    "type": "campground",
    "state": "NSW",
    "slug": "barney-gorge-junction",
    "phone": "",
    "website": "http://www.nprsr.qld.gov.au/parks/mount-barney/camping.html",
    "fee": "yes",
    "access": "",
    "capacity": "15",
    "drinking_water": "",
    "toilets": "",
    "shower": "",
    "power_supply": "",
    "bbq": "",
    "pets": "",
    "operator": "Queensland Parks and Wildlife Service",
    "description": "",
    "addr": ""
  },
  {
    "name": "Barokee Campground",
    "lat": -30.443409,
    "lon": 152.252156,
    "type": "campground",
    "state": "NSW",
    "slug": "barokee-campground",
    "phone": "",
    "website": "",
    "fee": "",
    "access": "customers",
    "capacity": "",
    "drinking_water": "",
    "toilets": "yes",
    "shower": "no",
    "power_supply": "",
    "bbq": "",
    "pets": "",
    "operator": "",
    "description": "",
    "addr": ""
  },
  {
    "name": "Barraba Campsite",
    "lat": -32.966008,
    "lon": 151.308454,
    "type": "campground",
    "state": "NSW",
    "slug": "barraba-campsite",
    "phone": "",
    "website": "",
    "fee": "no",
    "access": "",
    "capacity": "",
    "drinking_water": "",
    "toilets": "",
    "shower": "no",
    "power_supply": "",
    "bbq": "",
    "pets": "",
    "operator": "",
    "description": "Great North Walk camp site",
    "addr": ""
  },
  {
    "name": "Barraba Caravan Park",
    "lat": -30.37237,
    "lon": 150.61011,
    "type": "caravan_park",
    "state": "NSW",
    "slug": "barraba-caravan-park",
    "phone": "",
    "website": "",
    "fee": "",
    "access": "",
    "capacity": "",
    "drinking_water": "",
    "toilets": "",
    "shower": "",
    "power_supply": "",
    "bbq": "",
    "pets": "",
    "operator": "",
    "description": "",
    "addr": ""
  },
  {
    "name": "Barraba Lions Park",
    "lat": -30.42083,
    "lon": 150.61639,
    "type": "campground",
    "state": "NSW",
    "slug": "barraba-lions-park",
    "phone": "",
    "website": "",
    "fee": "donation",
    "access": "",
    "capacity": "",
    "drinking_water": "",
    "toilets": "yes",
    "shower": "no",
    "power_supply": "",
    "bbq": "",
    "pets": "",
    "operator": "Tamworth Regional Council",
    "description": "",
    "addr": ""
  },
  {
    "name": "Barraba Showground",
    "lat": -30.38573,
    "lon": 150.598247,
    "type": "campground",
    "state": "NSW",
    "slug": "barraba-showground",
    "phone": "",
    "website": "",
    "fee": "",
    "access": "",
    "capacity": "",
    "drinking_water": "",
    "toilets": "",
    "shower": "",
    "power_supply": "",
    "bbq": "",
    "pets": "",
    "operator": "",
    "description": "",
    "addr": ""
  },
  {
    "name": "Barri Yalug Hike-in Campground",
    "lat": -37.22351,
    "lon": 142.553066,
    "type": "campground",
    "state": "NSW",
    "slug": "barri-yalug-hike-in-campground",
    "phone": "",
    "website": "",
    "fee": "yes",
    "access": "",
    "capacity": "",
    "drinking_water": "",
    "toilets": "",
    "shower": "",
    "power_supply": "",
    "bbq": "",
    "pets": "",
    "operator": "Parks Victoria",
    "description": "",
    "addr": ""
  },
  {
    "name": "Barry Saddle Campsite",
    "lat": -37.109437,
    "lon": 146.763976,
    "type": "campground",
    "state": "NSW",
    "slug": "barry-saddle-campsite",
    "phone": "",
    "website": "",
    "fee": "",
    "access": "",
    "capacity": "",
    "drinking_water": "",
    "toilets": "",
    "shower": "",
    "power_supply": "",
    "bbq": "",
    "pets": "",
    "operator": "",
    "description": "",
    "addr": ""
  },
  {
    "name": "Barwidgee Rest Area",
    "lat": -36.49389,
    "lon": 146.79333,
    "type": "campground",
    "state": "NSW",
    "slug": "barwidgee-rest-area",
    "phone": "",
    "website": "",
    "fee": "",
    "access": "",
    "capacity": "",
    "drinking_water": "",
    "toilets": "",
    "shower": "",
    "power_supply": "",
    "bbq": "",
    "pets": "",
    "operator": "",
    "description": "",
    "addr": ""
  },
  {
    "name": "Barwon River Campsite",
    "lat": -28.975909,
    "lon": 148.983402,
    "type": "campground",
    "state": "NSW",
    "slug": "barwon-river-campsite",
    "phone": "",
    "website": "",
    "fee": "no",
    "access": "yes",
    "capacity": "",
    "drinking_water": "",
    "toilets": "yes",
    "shower": "yes",
    "power_supply": "",
    "bbq": "",
    "pets": "",
    "operator": "Balonne Shire Council",
    "description": "",
    "addr": ""
  },
  {
    "name": "Base Canp",
    "lat": -34.41396,
    "lon": 150.148247,
    "type": "campground",
    "state": "NSW",
    "slug": "base-canp",
    "phone": "",
    "website": "",
    "fee": "",
    "access": "",
    "capacity": "",
    "drinking_water": "",
    "toilets": "",
    "shower": "",
    "power_supply": "",
    "bbq": "",
    "pets": "",
    "operator": "",
    "description": "",
    "addr": ""
  },
  {
    "name": "Basket Swamp Camping Area",
    "lat": -28.909999,
    "lon": 152.153764,
    "type": "campground",
    "state": "NSW",
    "slug": "basket-swamp-camping-area",
    "phone": "",
    "website": "",
    "fee": "",
    "access": "",
    "capacity": "",
    "drinking_water": "",
    "toilets": "",
    "shower": "",
    "power_supply": "",
    "bbq": "",
    "pets": "",
    "operator": "",
    "description": "",
    "addr": ""
  },
  {
    "name": "Bass Hill Tourist Park",
    "lat": -33.900312,
    "lon": 150.996572,
    "type": "caravan_park",
    "state": "NSW",
    "slug": "bass-hill-tourist-park",
    "phone": "",
    "website": "https://www.basshilltouristpark.com.au",
    "fee": "",
    "access": "",
    "capacity": "",
    "drinking_water": "",
    "toilets": "",
    "shower": "",
    "power_supply": "",
    "bbq": "",
    "pets": "",
    "operator": "",
    "description": "",
    "addr": ""
  },
  {
    "name": "Batemans Bay Marina Resort",
    "lat": -35.718052,
    "lon": 150.19314,
    "type": "caravan_park",
    "state": "NSW",
    "slug": "batemans-bay-marina-resort",
    "phone": "",
    "website": "https://hampshireholidays.com.au/parks/nsw/batemans-bay-marina-resort",
    "fee": "",
    "access": "",
    "capacity": "",
    "drinking_water": "",
    "toilets": "",
    "shower": "",
    "power_supply": "",
    "bbq": "",
    "pets": "",
    "operator": "",
    "description": "",
    "addr": "Beach Road"
  },
  {
    "name": "Batemans Bay North Tourist Park and Accommodation",
    "lat": -35.673147,
    "lon": 150.223238,
    "type": "caravan_park",
    "state": "NSW",
    "slug": "batemans-bay-north-tourist-park-and-accommodation",
    "phone": "",
    "website": "",
    "fee": "",
    "access": "",
    "capacity": "",
    "drinking_water": "",
    "toilets": "",
    "shower": "",
    "power_supply": "",
    "bbq": "",
    "pets": "",
    "operator": "",
    "description": "",
    "addr": ""
  },
  {
    "name": "Bathurst Showgrounds Camping Area",
    "lat": -33.417542,
    "lon": 149.590066,
    "type": "campground",
    "state": "NSW",
    "slug": "bathurst-showgrounds-camping-area",
    "phone": "",
    "website": "",
    "fee": "",
    "access": "",
    "capacity": "",
    "drinking_water": "",
    "toilets": "",
    "shower": "",
    "power_supply": "",
    "bbq": "",
    "pets": "",
    "operator": "",
    "description": "",
    "addr": ""
  },
  {
    "name": "Batlow Caravan Park",
    "lat": -35.516298,
    "lon": 148.147657,
    "type": "caravan_park",
    "state": "NSW",
    "slug": "batlow-caravan-park",
    "phone": "",
    "website": "",
    "fee": "",
    "access": "",
    "capacity": "",
    "drinking_water": "",
    "toilets": "",
    "shower": "",
    "power_supply": "",
    "bbq": "",
    "pets": "",
    "operator": "",
    "description": "",
    "addr": ""
  },
  {
    "name": "Batsh Camp",
    "lat": -34.143769,
    "lon": 150.09252,
    "type": "campground",
    "state": "NSW",
    "slug": "batsh-camp",
    "phone": "",
    "website": "https://www.exploreaustralia.net.au/New-South-Wales/Blue-Mountains/Blue-Mountains-National-Park/Batsh-Camp-camping-area",
    "fee": "",
    "access": "",
    "capacity": "",
    "drinking_water": "",
    "toilets": "",
    "shower": "",
    "power_supply": "",
    "bbq": "",
    "pets": "",
    "operator": "National Parks and Wildlife Service",
    "description": "",
    "addr": ""
  },
  {
    "name": "Battery Falls Campground",
    "lat": -30.166584,
    "lon": 152.831747,
    "type": "campground",
    "state": "NSW",
    "slug": "battery-falls-campground",
    "phone": "",
    "website": "",
    "fee": "",
    "access": "",
    "capacity": "",
    "drinking_water": "",
    "toilets": "",
    "shower": "",
    "power_supply": "",
    "bbq": "",
    "pets": "",
    "operator": "",
    "description": "",
    "addr": ""
  },
  {
    "name": "Battery Rock Rest Area",
    "lat": -32.21417,
    "lon": 150.45917,
    "type": "campground",
    "state": "NSW",
    "slug": "battery-rock-rest-area",
    "phone": "",
    "website": "",
    "fee": "no",
    "access": "yes",
    "capacity": "",
    "drinking_water": "",
    "toilets": "yes",
    "shower": "no",
    "power_supply": "",
    "bbq": "",
    "pets": "",
    "operator": "",
    "description": "",
    "addr": ""
  },
  {
    "name": "Bays Holiday Park",
    "lat": -32.756781,
    "lon": 152.067165,
    "type": "caravan_park",
    "state": "NSW",
    "slug": "bays-holiday-park",
    "phone": "",
    "website": "",
    "fee": "",
    "access": "",
    "capacity": "",
    "drinking_water": "",
    "toilets": "",
    "shower": "",
    "power_supply": "",
    "bbq": "",
    "pets": "",
    "operator": "",
    "description": "",
    "addr": "Port Stephens Drive"
  },
  {
    "name": "Beachcomber Holiday Park",
    "lat": -36.082215,
    "lon": 150.130707,
    "type": "caravan_park",
    "state": "NSW",
    "slug": "beachcomber-holiday-park",
    "phone": "",
    "website": "",
    "fee": "",
    "access": "",
    "capacity": "",
    "drinking_water": "",
    "toilets": "",
    "shower": "",
    "power_supply": "",
    "bbq": "",
    "pets": "",
    "operator": "",
    "description": "",
    "addr": ""
  },
  {
    "name": "Beachside",
    "lat": -35.377786,
    "lon": 150.460722,
    "type": "campground",
    "state": "NSW",
    "slug": "beachside",
    "phone": "",
    "website": "",
    "fee": "yes",
    "access": "customers",
    "capacity": "",
    "drinking_water": "",
    "toilets": "",
    "shower": "",
    "power_supply": "",
    "bbq": "",
    "pets": "",
    "operator": "",
    "description": "",
    "addr": ""
  },
  {
    "name": "Bears Lagoon Fruit Fly Rest Area",
    "lat": -36.31306,
    "lon": 143.97444,
    "type": "campground",
    "state": "NSW",
    "slug": "bears-lagoon-fruit-fly-rest-area",
    "phone": "",
    "website": "",
    "fee": "",
    "access": "",
    "capacity": "",
    "drinking_water": "no",
    "toilets": "yes",
    "shower": "no",
    "power_supply": "no",
    "bbq": "",
    "pets": "",
    "operator": "",
    "description": "",
    "addr": ""
  },
  {
    "name": "Beaufort Lake Caravan Park",
    "lat": -37.441879,
    "lon": 143.380454,
    "type": "caravan_park",
    "state": "NSW",
    "slug": "beaufort-lake-caravan-park",
    "phone": "+61 3 5349 2196",
    "website": "https://beaufortlakecaravanpark.com.au/",
    "fee": "",
    "access": "",
    "capacity": "",
    "drinking_water": "",
    "toilets": "",
    "shower": "",
    "power_supply": "",
    "bbq": "",
    "pets": "",
    "operator": "",
    "description": "",
    "addr": "Park Road"
  },
  {
    "name": "Beazleys Bridge Rest Area",
    "lat": -36.701783,
    "lon": 143.163755,
    "type": "campground",
    "state": "NSW",
    "slug": "beazleys-bridge-rest-area",
    "phone": "",
    "website": "",
    "fee": "",
    "access": "",
    "capacity": "",
    "drinking_water": "",
    "toilets": "",
    "shower": "",
    "power_supply": "",
    "bbq": "",
    "pets": "",
    "operator": "",
    "description": "",
    "addr": ""
  },
  {
    "name": "Beckom Park",
    "lat": -34.324759,
    "lon": 146.961698,
    "type": "campground",
    "state": "NSW",
    "slug": "beckom-park",
    "phone": "",
    "website": "",
    "fee": "no",
    "access": "yes",
    "capacity": "",
    "drinking_water": "",
    "toilets": "yes",
    "shower": "no",
    "power_supply": "",
    "bbq": "",
    "pets": "",
    "operator": "",
    "description": "(Informal Freecamp)",
    "addr": ""
  },
  {
    "name": "Bedgerebong Showgrounds",
    "lat": -33.36444,
    "lon": 147.69222,
    "type": "campground",
    "state": "NSW",
    "slug": "bedgerebong-showgrounds",
    "phone": "",
    "website": "",
    "fee": "",
    "access": "",
    "capacity": "",
    "drinking_water": "",
    "toilets": "",
    "shower": "",
    "power_supply": "",
    "bbq": "",
    "pets": "",
    "operator": "",
    "description": "",
    "addr": ""
  },
  {
    "name": "Bee Tree",
    "lat": -37.123685,
    "lon": 145.955859,
    "type": "campground",
    "state": "NSW",
    "slug": "bee-tree",
    "phone": "",
    "website": "",
    "fee": "",
    "access": "",
    "capacity": "",
    "drinking_water": "",
    "toilets": "",
    "shower": "",
    "power_supply": "",
    "bbq": "",
    "pets": "",
    "operator": "",
    "description": "",
    "addr": ""
  },
  {
    "name": "Beechworth Holiday Park",
    "lat": -36.368895,
    "lon": 146.707591,
    "type": "caravan_park",
    "state": "NSW",
    "slug": "beechworth-holiday-park",
    "phone": "",
    "website": "https://www.beechworthholidaypark.com.au/",
    "fee": "",
    "access": "",
    "capacity": "",
    "drinking_water": "",
    "toilets": "",
    "shower": "",
    "power_supply": "",
    "bbq": "",
    "pets": "",
    "operator": "",
    "description": "",
    "addr": ""
  },
  {
    "name": "Beemery Rest Area",
    "lat": -30.006195,
    "lon": 146.358271,
    "type": "campground",
    "state": "NSW",
    "slug": "beemery-rest-area",
    "phone": "",
    "website": "",
    "fee": "",
    "access": "",
    "capacity": "",
    "drinking_water": "",
    "toilets": "yes",
    "shower": "",
    "power_supply": "",
    "bbq": "",
    "pets": "",
    "operator": "",
    "description": "",
    "addr": ""
  },
  {
    "name": "Beeripmo Campground",
    "lat": -37.30042,
    "lon": 143.248495,
    "type": "campground",
    "state": "NSW",
    "slug": "beeripmo-campground",
    "phone": "",
    "website": "",
    "fee": "no",
    "access": "",
    "capacity": "",
    "drinking_water": "",
    "toilets": "",
    "shower": "",
    "power_supply": "",
    "bbq": "",
    "pets": "",
    "operator": "",
    "description": "",
    "addr": ""
  },
  {
    "name": "Bega Lookout",
    "lat": -36.644852,
    "lon": 149.824227,
    "type": "campground",
    "state": "NSW",
    "slug": "bega-lookout",
    "phone": "",
    "website": "",
    "fee": "",
    "access": "",
    "capacity": "",
    "drinking_water": "",
    "toilets": "",
    "shower": "",
    "power_supply": "",
    "bbq": "",
    "pets": "",
    "operator": "",
    "description": "",
    "addr": ""
  },
  {
    "name": "Beggs Bend",
    "lat": -34.628493,
    "lon": 142.861527,
    "type": "campground",
    "state": "NSW",
    "slug": "beggs-bend",
    "phone": "",
    "website": "",
    "fee": "",
    "access": "",
    "capacity": "",
    "drinking_water": "",
    "toilets": "",
    "shower": "",
    "power_supply": "",
    "bbq": "",
    "pets": "",
    "operator": "",
    "description": "",
    "addr": ""
  },
  {
    "name": "Belah Campground",
    "lat": -33.712011,
    "lon": 143.177341,
    "type": "campground",
    "state": "NSW",
    "slug": "belah-campground",
    "phone": "",
    "website": "",
    "fee": "",
    "access": "",
    "capacity": "",
    "drinking_water": "",
    "toilets": "",
    "shower": "",
    "power_supply": "",
    "bbq": "",
    "pets": "",
    "operator": "",
    "description": "",
    "addr": ""
  },
  {
    "name": "Bell River Rest Area",
    "lat": -32.911504,
    "lon": 148.890657,
    "type": "campground",
    "state": "NSW",
    "slug": "bell-river-rest-area",
    "phone": "",
    "website": "",
    "fee": "",
    "access": "",
    "capacity": "",
    "drinking_water": "",
    "toilets": "",
    "shower": "",
    "power_supply": "",
    "bbq": "",
    "pets": "",
    "operator": "",
    "description": "",
    "addr": ""
  },
  {
    "name": "Bellata Golf Club Freecamp",
    "lat": -29.920125,
    "lon": 149.798861,
    "type": "campground",
    "state": "NSW",
    "slug": "bellata-golf-club-freecamp",
    "phone": "",
    "website": "",
    "fee": "no",
    "access": "customers",
    "capacity": "",
    "drinking_water": "",
    "toilets": "yes",
    "shower": "yes",
    "power_supply": "yes",
    "bbq": "",
    "pets": "",
    "operator": "Bellata Golf Club",
    "description": "Register at clubhouse during open hours",
    "addr": ""
  },
  {
    "name": "Bellbird Campground",
    "lat": -29.47399,
    "lon": 152.315269,
    "type": "campground",
    "state": "NSW",
    "slug": "bellbird-campground",
    "phone": "",
    "website": "",
    "fee": "yes",
    "access": "",
    "capacity": "",
    "drinking_water": "",
    "toilets": "yes",
    "shower": "no",
    "power_supply": "",
    "bbq": "",
    "pets": "",
    "operator": "NSW National Parks and Wildlife Service",
    "description": "",
    "addr": ""
  },
  {
    "name": "Bellbird Campground",
    "lat": -29.47417,
    "lon": 152.31611,
    "type": "campground",
    "state": "NSW",
    "slug": "bellbird-campground-1",
    "phone": "",
    "website": "",
    "fee": "",
    "access": "",
    "capacity": "",
    "drinking_water": "",
    "toilets": "",
    "shower": "",
    "power_supply": "",
    "bbq": "",
    "pets": "",
    "operator": "",
    "description": "",
    "addr": ""
  },